CrsCode,StationName,Easting,Northing,RevisionNumber,Grid Reference,Latitude,Longitude
ABA,Aberdare Rail Station,300400,202800,2,SO0040002800,51.715056,-3.4430834
AUR,Aberdour Rail Station,319100,685400,1,NT1910085400,56.05459,-3.30056
AVY,Aberdovey Rail Station,260600,296000,1,SN6060096000,52.543955,-4.057067
ABE,Aber Rail Station,314870,186950,1,ST1487086950,51.574964,-3.2298284
AGL,Abergele & Pensarn Rail Station,294612,378681,1,SH9461278681,53.294571,-3.5826219
ACY,Abercynon Rail Station,308278,194824,2,ST0827894824,51.644707,-3.3269879
ABD,Aberdeen Rail Station,394127,805872,2,NJ9412705872,57.143703,-2.0986851
ABH,Abererch Rail Station,240400,336100,1,SH4040036100,52.898581,-4.3741754
AGV,Abergavenny Rail Station,330500,213600,2,SO3050013600,51.816688,-3.0096468
AYW,Aberystwyth Rail Station,258500,281600,4,SN5850081600,52.414043,-4.0818934
ABW,Abbey Wood (London) Rail Station,547374,179035,2,TQ4737479035,51.491061,0.12139403
ACB,Acton Bridge Rail Station,359870,374560,2,SJ5987074560,53.266506,-2.6031265
AAT,Achanalt Rail Station,226020,861473,2,NH2602061473,57.609594,-4.9138511
ACH,Achnashellach Rail Station,200290,848440,1,NH0029048440,57.482073,-5.3330551
AUK,Auchinleck Rail Station,255000,622000,1,NS5500022000,55.470272,-4.2953491
ACN,Achnasheen Rail Station,216403,858519,2,NH1640358519,57.579288,-5.072332
ACK,Acklington Rail Station,422200,601500,1,NU2220001500,55.307097,-1.6518346
ACL,Acle Rail Station,639900,310000,2,TG3990010000,52.63468,1.5439151
ACG,Acocks Green Rail Station,412400,283500,1,SP1240083500,52.449321,-1.8189754
ACR,Accrington Rail Station,375730,428575,7,SD7573028575,53.75297,-2.3695478
ACC,Acton Central Rail Station,520645,180295,2,TQ2064580295,51.508715,-0.26297069
AML,Acton Main Line Rail Station,520360,181230,2,TQ2036081230,51.517178,-0.26675643
ADD,Adderley Park Rail Station,409880,287250,1,SP0988087250,52.483084,-1.8559444
ADW,Addiewell Rail Station,299500,662300,1,NS9950062300,55.843407,-3.6065264
ADM,Adisham Rail Station,623391,153976,1,TR2339153976,51.2412,1.1990891
ADC,Adlington (Cheshire) Rail Station,391200,380300,1,SJ9120080300,53.319552,-2.1335625
ASN,Addlestone Rail Station,505587,164866,1,TQ0558764866,51.373044,-0.48445678
ADL,Adlington (Lancs) Rail Station,360200,413135,2,SD6020013135,53.613243,-2.6030708
AWK,Adwick Rail Station,454375,408725,2,SE5437508725,53.572319,-1.1803562
AUG,Aughton Park Rail Station,340790,406775,2,SD4079006775,53.554246,-2.8952208
AIG,Aigburth Rail Station,338400,385700,1,SJ3840085700,53.364563,-2.9271549
ANS,Ainsdale Rail Station,331101,412224,2,SD3110112224,53.602031,-3.042652
AIN,Aintree Rail Station,336625,397890,2,SJ3662597890,53.473908,-2.9562803
AIR,Airbles Rail Station,275034,656191,2,NS7503456191,55.782832,-3.9941924
ADR,Airdrie Rail Station,276000,665200,2,NS7600065200,55.863977,-3.982912
APN,Newcastle Airport Metro,418566,571308,1,NZ1856671308,55.035948,-1.7110465
AYP,Albany Park Rail Station,547855,172860,2,TQ4785572860,51.435451,0.12573707
ALB,Albrighton Rail Station,381900,304500,1,SJ8190004500,52.637941,-2.2688999
ALD,Alderley Edge Rail Station,384317,378563,1,SJ8431778563,53.303779,-2.2367991
AMT,Aldermaston Rail Station,460100,167345,2,SU6010067345,51.40196,-1.1374238
AHT,Aldershot Rail Station,486656,150424,3,SU8665650424,51.246417,-0.75985985
AGT,Aldrington Rail Station,527984,105666,2,TQ2798405666,50.836382,-0.18382151
LPY,Liverpool South Parkway Rail Station,340921,384909,1,SJ4092184909,53.357742,-2.8891277
AAP,Alexandra Palace Rail Station,530295,190460,2,TQ3029590460,51.597922,-0.12023522
ALF,Alfreton Rail Station,442300,356100,1,SK4230056100,53.10043,-1.3696961
ALW,Allens West Rail Station,441449,514558,2,NZ4144914558,54.524621,-1.3611167
ALO,Alloa Rail Station,288800,693115,0,NS8880093115,56.117788,-3.7900556
ASS,Alness Rail Station,266000,869400,2,NH6600069400,57.694393,-4.2497162
ALM,Alnmouth Rail Station,423115,611040,2,NU2311511040,55.392776,-1.6366377
ALR,Alresford (Essex) Rail Station,606525,221515,4,TM0652521515,51.853999,0.99743646
ASG,Alsager Rail Station,380070,355130,2,SJ8007055130,53.093002,-2.2990575
AYH,Aylesham Rail Station,624182,152457,1,TR2418252457,51.227253,1.2094528
ALN,Althorne Rail Station,590524,197929,1,TQ9052497929,51.647869,0.75248345
ABC,Altnabreac Rail Station,300340,945680,2,ND0034045680,58.388147,-3.7062802
AON,Alton Rail Station,472352,139697,3,SU7235239697,51.151967,-0.96691324
ALP,Althorpe Rail Station,483960,410625,2,SE8396010625,53.585499,-0.73318226
ALT,Altrincham Rail Station,377026,387931,5,SJ7702687931,53.387715,-2.3468888
ALV,Alvechurch Rail Station,402300,272000,1,SP0230072000,52.346069,-1.9676605
ALX,Alexandria Rail Station,239300,679900,1,NS3930079900,55.985082,-4.5774841
AXP,Alexandra Parade Rail Station,261747,665542,2,NS6174765542,55.863169,-4.2106479
AMB,Ambergate Rail Station,434900,351600,1,SK3490051600,53.060515,-1.4806975
AMR,Amersham Rail Station,496379,198188,1,SU9637998188,51.674204,-0.60759611
AMY,Amberley Rail Station,502632,111812,1,TQ0263211812,50.896678,-0.54199239
AMF,Ammanford Rail Station,262400,212700,1,SN6240012700,51.795973,-3.9967348
ANC,Ancaster Rail Station,498400,344375,2,SK9840044375,52.987686,-0.53562371
ADV,Andover Rail Station,435565,145938,2,SU3556545938,51.211545,-1.4922329
AND,Anderston Rail Station,257960,665300,2,NS5796065300,55.859896,-4.270979
ANZ,Anerley Rail Station,534605,169900,2,TQ3460569900,51.412151,-0.065885918
AGR,Angel Road Rail Station,535200,192200,1,TQ3520092200,51.612403,-0.04879142
ANG,Angmering Rail Station,506513,102979,1,TQ0651302979,50.816574,-0.489394
ANN,Annan Rail Station,319300,566200,2,NY1930066200,54.983834,-3.2625804
AFV,Ansdell & Fairhaven Rail Station,334601,427689,3,SD3460127689,53.741461,-2.9930339
ANL,Anniesland Rail Station,254880,668683,3,NS5488068683,55.889349,-4.3219567
APP,Appleby Rail Station,368640,520680,1,NY6864020680,54.580345,-2.4866922
APD,Appledore (Kent) Rail Station,597566,129760,1,TQ9756629760,51.033236,0.81634155
APY,Apperley Bridge Rail Station,419454,438429,1,SE1945438429,53.841747,-1.7058285
APB,Appley Bridge Rail Station,352475,409360,2,SD5247509360,53.578669,-2.7192521
APF,Appleford Rail Station,452542,193698,1,SU5254293698,51.63964,-1.2421414
APS,Apsley Rail Station,506245,204874,1,TL0624504874,51.73252,-0.4629348
ARB,Arbroath Rail Station,363900,741000,2,NO6390041000,56.559572,-2.5889314
ART,Arrochar & Tarbet Rail Station,231200,704600,2,NN3120004600,56.203969,-4.7227699
ARD,Ardgay Rail Station,260030,890446,2,NH6003090446,57.881451,-4.3620891
AUI,Ardlui Rail Station,231700,715500,2,NN3170015500,56.301965,-4.7216573
ADS,Ardrossan Harbour Rail Station,222540,642090,1,NS2254042090,55.639871,-4.8211103
ASB,Ardrossan South Beach Rail Station,223799,642211,2,NS2379942211,55.641415,-4.8012113
ADN,Ardrossan Town Rail Station,223070,642050,1,NS2307042050,55.639705,-4.8126751
ADK,Ardwick Rail Station,385900,397200,1,SJ8590097200,53.471342,-2.2138839
AGS,Argyle Street Rail Station,259220,664970,3,NS5922064970,55.857302,-4.2506938
ARG,Arisaig Rail Station,166400,786700,1,NM6640086700,56.912545,-5.8390775
ARL,Arlesey Rail Station,519045,237820,1,TL1904537820,52.02603,-0.26631983
ARM,Armadale (W Lothian) Rail Station,294050,667140,0,NS9405067140,55.885708,-3.6954125
AWT,Armathwaite Rail Station,350475,546340,2,NY5047546340,54.809464,-2.772071
ARN,Arnside Rail Station,346070,478870,2,SD4607078870,54.202727,-2.8282414
ARR,Arram Rail Station,503520,444275,2,TA0352044275,53.884342,-0.42657012
ARU,Arundel Rail Station,502444,106417,4,TQ0244406417,50.848213,-0.54617428
ACT,Ascot Rail Station,492200,168300,1,SU9220068300,51.406242,-0.67583322
AUW,Ascott-under-Wychwood Rail Station,430114,218841,1,SP3011418841,51.867339,-1.5640527
AFS,Ashford (Surrey) Rail Station,506580,171947,1,TQ0658071947,51.436506,-0.46807098
ASF,Ashfield Rail Station,259427,668485,2,NS5942768485,55.88892,-4.249214
ABY,Ashburys Rail Station,387191,397229,2,SJ8719197229,53.471636,-2.1944363
ASC,Ashchurch for Tewkesbury Rail Station,392630,233390,3,SO9263033390,51.998902,-2.1087599
AHD,Ashtead Rail Station,518040,159000,2,TQ1804059000,51.317872,-0.30757175
AFK,Ashford International Rail Station,601282,142204,4,TR0128242204,51.143704,0.87619726
ASH,Ash Rail Station,489934,150834,1,SU8993450834,51.249596,-0.71280544
ASY,Ashley Rail Station,377370,384370,2,SJ7737084370,53.355722,-2.3414604
AHN,Ashton-under-Lyne Rail Station,393840,399400,3,SJ9384099400,53.491271,-2.0943123
AHS,Ashurst (Kent) Rail Station,550726,138801,2,TQ5072638801,51.128661,0.15265212
AHV,Ash Vale Rail Station,489273,153342,1,SU8927353342,51.272245,-0.72164856
AWM,Ashwell & Morden Rail Station,529770,238615,1,TL2977038615,52.03077,-0.10978891
ASK,Askam Rail Station,321500,477688,2,SD2150077688,54.188928,-3.2045112
ALK,Aslockton Rail Station,474130,339920,2,SK7413039920,52.951548,-0.89809757
APG,Aspley Guise Rail Station,493944,236751,1,SP9394436751,52.021235,-0.63233448
ASP,Aspatria Rail Station,314390,541260,3,NY1439041260,54.758955,-3.3318736
AST,Aston Rail Station,408790,289600,2,SP0879089600,52.504229,-1.8719335
ATT,Attadale Rail Station,192456,839125,2,NG9245639125,57.395035,-5.4555769
ATN,Atherton Rail Station,368347,403716,2,SD6834703716,53.529142,-2.478972
ATH,Atherstone Rail Station,430400,298000,2,SP3040098000,52.57897,-1.5528113
ATB,Attenborough Rail Station,451790,334585,2,SK5179034585,52.906211,-1.2314155
ATL,Attleborough Rail Station,605177,295033,3,TM0517795033,52.514546,1.0223476
AUD,Audley End Rail Station,551600,236300,1,TL5160036300,52.004441,0.20716003
AVM,Aviemore Rail Station,289566,812339,5,NH8956612339,57.18851,-3.8288671
AVF,Avoncliff Rail Station,380500,160100,1,ST8050060100,51.339649,-2.2813253
AVN,Avonmouth Rail Station,351544,178168,2,ST5154478168,51.50036,-2.6994661
AXM,Axminster Rail Station,329260,98225,2,SY2926098225,50.779269,-3.0047231
AYL,Aylesford Rail Station,572017,158687,1,TQ7201758687,51.301316,0.46617058
AYS,Aylesbury Rail Station,481779,213470,1,SP8177913470,51.813889,-0.81509596
AVP,Aylesbury Vale Parkway Rail Station,478641,215341,0,SP7864115341,51.831157,-0.86018239
AYR,Ayr Rail Station,234060,621390,3,NS3406021390,55.458141,-4.6258755
BAC,Bache Rail Station,340545,368340,2,SJ4054568340,53.208784,-2.89167
BNA,Burnage Rail Station,385764,391618,2,SJ8576491618,53.421165,-2.2156781
BAG,Bagshot Rail Station,491391,163627,1,SU9139163627,51.364366,-0.68866197
BLD,Baildon Rail Station,416305,439360,2,SE1630539360,53.850223,-1.7536362
BAB,Balcombe Rail Station,530670,130115,1,TQ3067030115,51.05552,-0.13693375
BDK,Baldock Rail Station,524540,234264,1,TL2454034264,51.99287,-0.18756375
BAL,Balham Rail Station,528500,173200,1,TQ2850073200,51.443223,-0.15242449
BIO,Baillieston Rail Station,267750,663275,2,NS6775063275,55.8445,-4.1136983
BHC,Balloch Rail Station,239000,681900,2,NS3900081900,56.002932,-4.5834853
BSI,Balmossie Rail Station,348417,731698,2,NO4841731698,56.474564,-2.8389558
BAM,Bamford Rail Station,420800,382500,1,SK2080082500,53.338998,-1.6890817
BNV,Banavie Rail Station,211300,776700,1,NN1130076700,56.843307,-5.0954255
BNG,Bangor (Gwynedd) Rail Station,257500,371600,2,SH5750071600,53.222281,-4.1358799
BAD,Banstead Rail Station,524588,160432,1,TQ2458860432,51.329347,-0.21315893
BSS,Barassie Rail Station,232900,632900,1,NS3290032900,55.561057,-4.6511384
BAR,Bare Lane Rail Station,345439,464613,2,SD4543964613,54.07454,-2.8353304
BGD,Bargoed Rail Station,315100,200000,1,SO1510000000,51.692308,-3.2296795
BKG,Barking Rail Station,544410,184340,2,TQ4441084340,51.539493,0.08090243
BRT,Barlaston Rail Station,388800,338400,1,SJ8880038400,52.942871,-2.1681111
BMG,Barming Rail Station,572970,156891,1,TQ7297056891,51.284894,0.4789581
BNS,Barnes Rail Station,522200,175700,2,TQ2220075700,51.467084,-0.24216428
BIF,Barrow-in-Furness Rail Station,319955,469932,2,SD1995569932,54.118999,-3.2261203
BWS,Barrow upon Soar Rail Station,457820,317200,2,SK5782017200,52.749334,-1.144843
BRY,Barry Rail Station,310700,167200,1,ST1070067200,51.396781,-3.2849843
BYD,Barry Docks Rail Station,312400,167800,1,ST1240067800,51.40244,-3.2607033
BYI,Barry Island Rail Station,311500,166700,1,ST1150066700,51.392412,-3.2733634
BAV,Barrow Haven Rail Station,506200,423530,2,TA0620023530,53.697419,-0.39295523
BSO,Basildon Rail Station,570368,188330,2,TQ7036888330,51.568105,0.45678887
BBL,Bat & Ball Rail Station,553100,156800,1,TQ5310056800,51.289759,0.19422749
BTH,Bath Spa Rail Station,375248,164353,1,ST7524864353,51.377685,-2.3570181
BTL,Batley Rail Station,424985,423790,2,SE2498523790,53.70994,-1.6229525
BAK,Battersea Park Rail Station,528745,176960,2,TQ2874576960,51.476958,-0.14753352
BAT,Battle Rail Station,575470,115569,2,TQ7547015569,50.912914,0.49470279
BAY,Bayford Rail Station,531537,208274,1,TL3153708274,51.757715,-0.095610017
BCG,Birchgrove Rail Station,316711,180978,2,ST1671180978,51.521555,-3.2018532
BEC,Beckenham Hill Rail Station,538040,171375,2,TQ3804071375,51.424581,-0.015951111
BKJ,Beckenham Junction Rail Station,537395,169850,2,TQ3739569850,51.411033,-0.025812822
BKJ,Beckenham Junction Rail Station,537380,169865,2,TQ3738069865,51.411172,-0.02602256
BAW,Blackwater Rail Station,485320,159875,2,SU8532059875,51.33158,-0.77674099
BCK,Buckley Rail Station,329500,363400,1,SJ2950063400,53.163034,-3.0559256
BCH,Birchington-on-Sea Rail Station,629849,169444,2,TR2984969444,51.377491,1.3014085
BCF,Beaconsfield Rail Station,494004,191144,1,SU9400491144,51.61129,-0.64382225
BCS,Bicester North Rail Station,458550,223112,2,SP5855023112,51.903481,-1.1503834
BIT,Bicester Village Rail Station,458675,221950,3,SP5867521950,51.893022,-1.1487642
BWO,Bricket Wood Rail Station,513482,202017,1,TL1348202017,51.705426,-0.35911503
BDH,Bedhampton Rail Station,470781,106529,2,SU7078106529,50.853955,-0.99582837
BMT,Bedminster Rail Station,358800,171400,1,ST5880071400,51.440086,-2.5941489
BID,Bidston Rail Station,328400,390800,1,SJ2840090800,53.409135,-3.0785605
BER,Bearley Rail Station,417149,260721,2,SP1714960721,52.244409,-1.7502553
BSL,Beasdale Rail Station,170900,785000,1,NM7090085000,56.899552,-5.7638013
BEL,Beauly Rail Station,252005,845807,2,NH5200545807,57.478281,-4.4698657
BEB,Bebington Rail Station,333300,385000,1,SJ3330085000,53.357652,-3.0036346
BCC,Beccles Rail Station,642600,290500,2,TM4260090500,52.458521,1.5694934
BDM,Bedford Rail Station,504167,249744,1,TL0416749744,52.136186,-0.47944236
BEH,Bedworth Rail Station,436270,286952,3,SP3627086952,52.479295,-1.4673921
BDW,Bedwyn Rail Station,428020,164586,2,SU2802064586,51.379638,-1.5987861
BKS,Bekesbourne Rail Station,618942,156029,1,TR1894256029,51.261356,1.1367077
BLM,Belmont Rail Station,525545,162065,2,TQ2554562065,51.343813,-0.19885512
BGM,Bellingham Rail Station,537780,172295,2,TQ3778072295,51.432911,-0.019330805
BLP,Belper Rail Station,434808,347510,3,SK3480847510,53.023757,-1.4825104
BVD,Belvedere Rail Station,549515,179215,2,TQ4951579215,51.492117,0.1522861
BEM,Bempton Rail Station,519000,471730,2,TA1900071730,54.127658,-0.18045684
BEF,Benfleet Rail Station,577733,185893,1,TQ7773385893,51.543943,0.56171337
BAS,Bere Alston Rail Station,244000,67400,1,SX4400067400,50.485592,-4.2003544
BFE,Bere Ferrers Rail Station,245230,63545,2,SX4523063545,50.451275,-4.1814342
BKM,Berkhamsted Rail Station,499336,208139,1,SP9933608139,51.763132,-0.56201296
BEP,Bermuda Park Rail Station,435927,289412,1,SP3592789412,52.501432,-1.4721776
BBW,Berry Brow Rail Station,413761,413853,2,SE1376113853,53.621039,-1.7934321
BRK,Berwick (Sussex) Rail Station,552603,106774,1,TQ5260306774,50.840377,0.16601761
BES,Bescar Lane Rail Station,339605,414535,2,SD3960514535,53.623851,-2.9146105
BSJ,Bedford St Johns Rail Station,505000,249015,1,TL0500049015,52.129476,-0.46750101
BEE,Beeston Rail Station,453370,336220,2,SK5337036220,52.920753,-1.2076579
BYC,Betws-y-Coed Rail Station,279500,356500,1,SH7950056500,53.092065,-3.8008613
BEV,Beverley Rail Station,503860,439600,3,TA0386039600,53.842272,-0.42298011
BEX,Bexhill Rail Station,574495,107536,3,TQ7449507536,50.841041,0.47701661
BXY,Bexley Rail Station,549380,173435,2,TQ4938073435,51.440218,0.1479025
BAJ,Baglan Rail Station,274700,192300,1,SS7470092300,51.615539,-3.8111357
BEA,Bridge of Allan Rail Station,278530,697720,2,NS7853097720,56.156634,-3.9572284
BTG,Barnt Green Rail Station,400610,273670,1,SP0061073670,52.361087,-1.9924665
BHI,Birmingham International Rail Station,418728,283685,1,SP1872883685,52.450805,-1.7258567
JEQ,Jewellery Quarter Rail Station,405990,287950,1,SP0599087950,52.489433,-1.9132128
BMO,Birmingham Moor Street Rail Station,407400,286800,1,SP0740086800,52.479078,-1.8924725
BHM,Birmingham New Street Rail Station,406875,286659,2,SP0687586659,52.477817,-1.9002054
BSW,Birmingham Snow Hill Rail Station,406950,287275,2,SP0695087275,52.483354,-1.8990885
BHK,Bush Hill Park Rail Station,533700,195400,1,TQ3370095400,51.641517,-0.069221111
BKL,Bickley Rail Station,542370,168770,2,TQ4237068770,51.400103,0.045240544
BIW,Biggleswade Rail Station,519241,244351,1,TL1924144351,52.084678,-0.26118719
BBK,Bilbrook Rail Station,387500,302900,1,SJ8750002900,52.623716,-2.1860877
BIC,Billericay Rail Station,567500,195000,2,TQ6750095000,51.628882,0.41862962
BIG,Billingshurst Rail Station,508803,125123,1,TQ0880325123,51.015203,-0.45030222
BIN,Bingham Rail Station,470535,340160,3,SK7053540160,52.954189,-0.9515433
BWD,Birchwood Rail Station,365180,390785,2,SJ6518090785,53.412717,-2.5253079
BIK,Birkbeck Rail Station,535335,169000,2,TQ3533569000,51.40389,-0.055738737
BPT,Bishopton Rail Station,243769,670509,1,NS4376970509,55.902263,-4.5004864
BTS,Burntisland Rail Station,323300,685600,1,NT2330085600,56.057079,-3.2331977
BTE,Bitterne Rail Station,443890,113380,3,SU4389013380,50.918219,-1.3769995
BDL,Birkdale Rail Station,333018,415759,2,SD3301815759,53.634048,-3.0144496
BHS,Brockholes Rail Station,415340,411180,2,SE1534011180,53.59697,-1.7696912
BUK,Bucknell Rail Station,335577,273680,2,SO3557773680,52.357377,-2.9473778
BCU,Brockenhurst Rail Station,430140,102008,3,SU3014002008,50.816839,-1.573531
BKW,Berkswell Rail Station,424400,277600,1,SP2440077600,52.395879,-1.6428403
BFF,Blaenau Ffestiniog Rail Station,269984,345894,1,SH6998445894,52.994547,-3.9385949
BAI,Blairhill Rail Station,272230,665585,2,NS7223065585,55.866449,-4.0432902
BKD,Blakedown Rail Station,388065,278725,2,SO8806578725,52.406399,-2.1768654
BLT,Blantyre Rail Station,269265,657975,3,NS6926557975,55.797324,-4.0869707
BLA,Blair Atholl Rail Station,287000,765300,2,NN8700065300,56.765545,-3.8502279
BLO,Blaydon Rail Station,418500,563500,1,NZ1850063500,54.965787,-1.7125807
BHO,Blackhorse Road Rail Station,535800,189345,2,TQ3580089345,51.586604,-0.04123574
BPB,Blackpool Pleasure Beach Rail Station,330665,432919,2,SD3066532919,53.787951,-3.0538759
BPN,Blackpool North Rail Station,331024,436693,1,SD3102436693,53.821913,-3.0492746
BPS,Blackpool South Rail Station,331008,434110,2,SD3100834110,53.798699,-3.0489378
BSB,Bleasby Rail Station,470920,349865,2,SK7092049865,53.041363,-0.94368748
BFR,London Blackfriars Rail Station,531714,180914,1,TQ3171480914,51.511808,-0.10333207
BLG,Bellgrove Rail Station,260865,664850,2,NS6086564850,55.856703,-4.2243739
BEU,Beaulieu Road Rail Station,434957,106287,2,SU3495706287,50.855047,-1.5047495
BBN,Blackburn Rail Station,368500,427900,1,SD6850027900,53.746514,-2.479122
BKH,Blackheath Rail Station,539640,176005,2,TQ3964076005,51.465795,0.008871874
BKR,Blackridge Rail Station,290582,667064,0,NS9058267064,55.88425,-3.7507966
BKT,Blake Street Rail Station,410600,300800,1,SK1060000800,52.604883,-1.8449144
BLV,Belle Vue Rail Station,388113,396196,2,SJ8811396196,53.462373,-2.180507
BLN,Blundellsands & Crosby Rail Station,331100,399500,1,SJ3110099500,53.487682,-3.0398597
BIL,Billingham Rail Station,446625,523620,4,NZ4662523620,54.605605,-1.2797196
BWN,Bloxwich North Rail Station,398900,303075,2,SJ9890003075,52.625435,-2.0176844
BLX,Bloxwich Rail Station,399320,302270,2,SJ9932002270,52.618199,-2.0114778
BLK,Blackrod Rail Station,362400,410700,1,SD6240010700,53.59152,-2.5695239
BLH,Bellshill Rail Station,273245,660055,2,NS7324560055,55.817062,-4.024499
BLY,Bletchley Rail Station,486859,233741,1,SP8685933741,51.995333,-0.73632047
BTD,Bolton-Upon-Dearne Rail Station,445745,402695,2,SE4574502695,53.518945,-1.3115461
BEG,Beltring Rail Station,568000,147800,1,TQ6800047800,51.204707,0.4034955
BYB,Blythe Bridge Rail Station,395600,341200,1,SJ9560041200,52.968141,-2.0669611
BMB,Bamber Bridge Rail Station,356500,425810,2,SD5650025810,53.726865,-2.660775
BML,Bramhall Rail Station,389210,384872,2,SJ8921084872,53.360611,-2.1635926
BMY,Bramley (Hants) Rail Station,465518,159440,3,SU6551859440,51.330292,-1.0610027
BAN,Banbury Rail Station,446160,240427,2,SP4616040427,52.060307,-1.3281328
BND,Brandon Rail Station,578447,287245,3,TL7844787245,52.454006,0.62473176
BIY,Bingley Rail Station,410800,439165,4,SE1080039165,53.848613,-1.8373223
BNM,Burnham (Berks) Rail Station,494008,181378,1,SU9400881378,51.523504,-0.6463738
BNL,Barnhill Rail Station,261025,667160,2,NS6102567160,55.877488,-4.2230048
BAH,Bank Hall Rail Station,334496,393867,2,SJ3449693867,53.437492,-2.9875114
BEY,Ben Rhydding Rail Station,413400,447750,2,SE1340047750,53.925712,-1.7974301
BNI,Barnes Bridge Rail Station,521460,176230,2,TQ2146076230,51.472007,-0.25263023
BUD,Burneside (Cumbria) Rail Station,350270,495765,2,SD5027095765,54.354978,-2.7666769
BNY,Barnsley Rail Station,434735,406535,2,SE3473506535,53.554299,-1.4771647
BTB,Barnetby Rail Station,505400,409900,2,TA0540009900,53.575119,-0.40967969
BTY,Bentley (Hants) Rail Station,479211,143053,4,SU7921143053,51.181231,-0.86812685
BFD,Brentford Rail Station,517460,177865,2,TQ1746077865,51.487545,-0.30965099
BEN,Bentham Rail Station,366715,468970,2,SD6671568970,54.115516,-2.5106761
BRW,Brunswick Rail Station,335173,387821,3,SJ3517387821,53.383239,-2.9760768
BOD,Bodmin Parkway Rail Station,211030,64058,1,SX1103064058,50.445861,-4.6629283
BOR,Bodorgan Rail Station,238600,370200,1,SH3860070200,53.2043,-4.4180031
BOG,Bognor Regis Rail Station,493415,99389,5,SZ9341599389,50.786557,-0.67617826
BGS,Bogston Rail Station,230738,674875,2,NS3073874875,55.93704,-4.7114009
BON,Bolton Rail Station,371900,408700,2,SD7190008700,53.574142,-2.4258246
BMH,Bournemouth Rail Station,409660,91970,2,SZ0966091970,50.727272,-1.864503
BKA,Bookham Rail Station,512784,155640,1,TQ1278455640,51.288737,-0.38402067
BRO,Bridge of Orchy Rail Station,230100,739400,2,NN3010039400,56.515866,-4.7629927
BOC,Bootle (Cumbria) Rail Station,309370,489305,2,SD0937089305,54.2913,-3.3938616
BNW,Bootle New Strand Rail Station,334040,395642,2,SJ3404095642,53.453387,-2.9947472
BOT,Bootle Oriel Road Rail Station,333964,394890,2,SJ3396494890,53.446619,-2.9957334
BNE,Bourne End Rail Station,489456,187260,1,SU8945687260,51.577116,-0.71047351
BRH,Borth Rail Station,260900,290100,1,SN6090090100,52.491025,-4.0501761
BRG,Borough Green & Wrotham Rail Station,560898,157424,1,TQ6089857424,51.293218,0.30624497
BOH,Bosham Rail Station,481246,105435,1,SU8124605435,50.842746,-0.84743119
BSN,Boston Rail Station,532301,344118,2,TF3230144118,52.978088,-0.031003234
BTF,Bottesford Rail Station,481080,339260,2,SK8108039260,52.944613,-0.79484267
BOE,Botley Rail Station,452170,113260,2,SU5217013260,50.916453,-1.2592364
BRV,Bournville Rail Station,405100,281000,1,SP0510081000,52.426961,-1.9264238
BWB,Bow Brickhill Rail Station,489604,234787,1,SP8960434787,52.004299,-0.6960778
BOP,Bowes Park Rail Station,530245,191470,2,TQ3024591470,51.60701,-0.12058195
BWG,Bowling Rail Station,244300,673700,1,NS4430073700,55.931078,-4.4938414
BXW,Box Hill & Westhumble Rail Station,516744,151865,1,TQ1674451865,51.25401,-0.32848994
BCE,Bracknell Rail Station,486910,168969,2,SU8691068969,51.41309,-0.75170361
BDQ,Bradford Forster Square Rail Station,416370,433430,1,SE1637033430,53.796923,-1.7529616
BDI,Bradford Interchange Rail Station,416594,432780,1,SE1659432780,53.791074,-1.7495957
BTP,Braintree Freeport Rail Station,576925,222100,2,TL7692522100,51.869414,0.56843471
BTR,Braintree Rail Station,576093,222736,3,TL7609322736,51.87539,0.556687
BRP,Brampton (Suffolk) Rail Station,641200,283400,1,TM4120083400,52.395433,1.5438106
BSM,Branksome Rail Station,405760,91930,3,SZ0576091930,50.726963,-1.9197582
BDB,Broadbottom Rail Station,399000,393800,1,SJ9900093800,53.440972,-2.0165208
BSY,Brondesbury Rail Station,524755,184450,2,TQ2475584450,51.545164,-0.20230873
BSP,Brondesbury Park Rail Station,524225,183940,2,TQ2422583940,51.540697,-0.21012766
BOA,Bradford-on-Avon Rail Station,382522,160678,2,ST8252260678,51.344912,-2.2523266
BWT,Bridgwater Rail Station,330790,136975,3,ST3079036975,51.127855,-2.9904054
BDN,Brading Rail Station,460950,86877,1,SZ6095086877,50.67837,-1.1387224
BDT,Bridlington Rail Station,517930,466857,5,TA1793066857,54.08413,-0.19872039
BLL,Bardon Mill Rail Station,377918,564486,1,NY7791864486,54.974492,-2.3465044
BBS,Bordesley Rail Station,408400,286000,1,SP0840086000,52.471871,-1.8777686
BDY,Bredbury Rail Station,392755,391823,2,SJ9275591823,53.423152,-2.110488
BRC,Breich Rail Station,295600,660600,1,NS9560060600,55.827311,-3.6681251
BYF,Broughty Ferry Rail Station,346300,730900,1,NO4630030900,56.467159,-2.8731523
BMF,Broomfleet Rail Station,487700,427910,2,SE8770027910,53.740207,-0.67182837
BGI,Bargeddie Rail Station,270270,663955,2,NS7027063955,55.85129,-4.0738073
BGN,Bridgend Rail Station,290769,179848,2,SS9076979848,51.506972,-3.5752756
BGG,Brigg Rail Station,500400,406900,3,TA0040006900,53.549144,-0.48612474
LRB,London Road (Brighton) Rail Station,531315,105780,1,TQ3131505780,50.836661,-0.13650234
BTN,Brighton Rail Station,531000,104920,3,TQ3100004920,50.829003,-0.14128036
BRR,Barrhead Rail Station,249840,659320,1,NS4984059320,55.803752,-4.3972832
BAA,Barnham Rail Station,495897,104367,1,SU9589704367,50.830905,-0.63967993
BGH,Brighouse Rail Station,414660,422440,2,SE1466022440,53.698196,-1.7794389
BDG,Bridgeton Rail Station,260732,663992,2,NS6073263992,55.848961,-4.2260562
BRF,Brierfield Rail Station,384530,436438,3,SD8453036438,53.823979,-2.2364899
BMD,Brimsdown Rail Station,536315,197035,2,TQ3631597035,51.655582,-0.03081743
BNF,Briton Ferry Rail Station,274200,194800,2,SS7420094800,51.637894,-3.8192522
BHD,Brithdir Rail Station,315200,202000,1,SO1520002000,51.710301,-3.2287202
BRX,Brixton Rail Station,531100,175500,1,TQ3110075500,51.463297,-0.11418348
BPK,Brookmans Park Rail Station,524119,204007,1,TL2411904007,51.72106,-0.20454872
CNP,Conway Park Rail Station,332090,388990,1,SJ3209088990,53.393357,-3.0226708
BKC,Birkenhead Central Rail Station,332205,388427,3,SJ3220588427,53.388312,-3.0208206
BKN,Birkenhead North Rail Station,329790,390256,2,SJ2979090256,53.404433,-3.0575331
BKP,Birkenhead Park Rail Station,331004,389456,2,SJ3100489456,53.397404,-3.0391007
BKO,Brookwood Rail Station,495200,156954,1,SU9520056954,51.303756,-0.63574787
BRS,Berrylands Rail Station,519700,168070,1,TQ1970068070,51.399043,-0.28071366
BUY,Burley Park Rail Station,427900,435165,2,SE2790035165,53.812029,-1.5777675
BOM,Bromborough Rail Station,334359,381001,3,SJ3435981001,53.321845,-2.9868953
BMR,Bromborough Rake Rail Station,334200,381900,1,SJ3420081900,53.329905,-2.9894689
BMC,Bromley Cross Rail Station,372914,413133,3,SD7291413133,53.614039,-2.4108988
BLE,Bramley (West Yorks) Rail Station,423990,434400,2,SE2399034400,53.805347,-1.6372062
BRM,Barmouth Rail Station,261200,315900,1,SH6120015900,52.722889,-4.0565957
BMP,Brampton (Cumbria) Rail Station,355055,559972,2,NY5505559972,54.932389,-2.7029472
BMV,Bromsgrove Rail Station,396870,269355,3,SO9687069355,52.322285,-2.047345
BCN,Branchton Rail Station,225000,675500,1,NS2500075500,55.940594,-4.803548
BNT,Brinnington Rail Station,391120,392823,2,SJ9112092823,53.432115,-2.1351199
BNH,Barnehurst Rail Station,550115,176210,2,TQ5011576210,51.464957,0.15964622
BUU,Burnham-on-Crouch Rail Station,594842,196511,1,TQ9484296511,51.633656,0.81402782
BNP,Barnstaple Rail Station,255561,132541,3,SS5556132541,51.073968,-4.0631168
BYA,Berney Arms Rail Station,646000,305300,1,TG4600005300,52.589786,1.6303755
BGE,Broad Green Rail Station,340699,390337,2,SJ4069990337,53.406502,-2.8934839
BCY,Brockley Rail Station,536420,175790,2,TQ3642075790,51.464647,-0.037536689
BMN,Bromley North Rail Station,540380,169630,2,TQ4038069630,51.408326,0.016992639
BMS,Bromley South Rail Station,540430,168702,2,TQ4043068702,51.399975,0.017344032
BME,Broome Rail Station,339900,280900,1,SO3990080900,52.42277,-2.8852075
BRA,Brora Rail Station,290657,904141,3,NC9065704141,58.012949,-3.8522828
BUH,Brough Rail Station,493870,426555,3,SE9387026555,53.726959,-0.57872421
BXB,Broxbourne Rail Station,537403,207228,1,TL3740307228,51.746909,-0.01108672
BRL,Barrhill Rail Station,222600,581600,1,NX2260081600,55.097003,-4.781781
BYL,Barry Links Rail Station,354200,733700,1,NO5420033700,56.493147,-2.7454417
BCB,Burscough Bridge Rail Station,344457,412406,2,SD4445712406,53.605255,-2.8408798
BCJ,Burscough Junction Rail Station,344465,411545,2,SD4446511545,53.597518,-2.8406052
BUI,Burnside (Strathclyde) Rail Station,262100,660380,2,NS6210060380,55.816925,-4.2023893
BSR,Broadstairs Rail Station,639131,167997,2,TR3913167997,51.360673,1.4335606
BRI,Bristol Temple Meads Rail Station,359700,172400,1,ST5970072400,51.449142,-2.5813152
BPW,Bristol Parkway Rail Station,362474,179570,2,ST6247479570,51.5138,-2.542163
BAU,Barton-on-Humber Rail Station,502888,422510,2,TA0288822510,53.688917,-0.44343672
BUJ,Burton Joyce Rail Station,464490,343330,2,SK6449043330,52.98344,-1.0408775
BRE,Brentwood Rail Station,559315,193035,3,TQ5931593035,51.613604,0.29958579
BCV,Bruce Grove Rail Station,533795,190110,2,TQ3379590110,51.593957,-0.069867067
BDA,Brundall Rail Station,632904,307967,2,TG3290407967,52.619482,1.4392988
BGA,Brundall Gardens Rail Station,631470,308340,2,TG3147008340,52.623442,1.4184162
BSU,Brunstane Rail Station,331330,672710,1,NT3133072710,55.942509,-3.100986
BRU,Bruton Rail Station,368800,134800,1,ST6880034800,51.111637,-2.4470735
BWK,Berwick-upon-Tweed Rail Station,399410,653445,2,NT9941053445,55.774336,-2.0109733
BNR,Brockley Whins Rail Station,434590,562900,1,NZ3459062900,54.959543,-1.4613533
BYN,Bryn Rail Station,357165,400547,2,SD5716500547,53.499865,-2.6472136
BYS,Braystones Rail Station,300100,505978,3,NY0010005978,54.439358,-3.5418257
BIA,Bishop Auckland Rail Station,420890,529170,2,NZ2089029170,54.657194,-1.6777149
BIA,Bishop Auckland Rail Station,420891,529170,1,NZ2089129170,54.657194,-1.6776994
BSC,Bescot Stadium Rail Station,400700,296140,2,SP0070096140,52.563091,-1.9911055
BRN,Bearsden Rail Station,254355,671795,2,NS5435571795,55.917128,-4.33202
BBG,Bishopbriggs Rail Station,261000,670100,1,NS6100070100,55.903877,-4.2249147
BIS,Bishops Stortford Rail Station,549155,220894,2,TL4915520894,51.86669,0.16489411
BSK,Basingstoke Rail Station,463774,152529,2,SU6377452529,51.268355,-1.0872638
BIB,Bishop's Lydeard,316388,129039,1,ST1638829039,51.054585,-3.1943297
BIP,Bishopstone Rail Station,546930,99908,1,TV4693099908,50.780142,0.082756925
BSD,Bearsted Rail Station,579882,156119,1,TQ7988256119,51.27582,0.57758038
BSE,Bury St Edmunds Rail Station,585300,265200,2,TL8530065200,52.253762,0.71330669
BTO,Betchworth Rail Station,521052,151317,1,TQ2105251317,51.248188,-0.26697301
BHG,Bathgate Rail Station,297790,668324,2,NS9779068324,55.897151,-3.636096
BET,Bethnal Green Rail Station,534715,182340,2,TQ3471582340,51.523916,-0.059568043
BUL,Butlers Lane Rail Station,411070,299420,1,SP1107099420,52.592468,-1.8380201
BLB,Battlesbridge Rail Station,577665,194895,2,TQ7766594895,51.624824,0.56528553
BYK,Bentley (S Yorks) Rail Station,456360,405590,3,SE5636005590,53.543935,-1.1509485
BTT,Battersby Rail Station,458900,507300,1,NZ5890007300,54.457678,-1.0929718
BUC,Buckenham Rail Station,635120,305650,1,TG3512005650,52.597737,1.4703254
BGL,Bugle Rail Station,201670,59335,2,SX0167059335,50.400347,-4.7921001
BHR,Builth Road Rail Station,302500,253300,1,SO0250053300,52.169321,-3.4270325
BLW,Bulwell Rail Station,454040,345010,1,SK5404045010,52.999694,-1.1962305
BUE,Bures Rail Station,590310,233920,2,TL9031033920,51.97116,0.76914382
BUG,Burgess Hill Rail Station,531625,118805,2,TQ3162518805,50.953654,-0.12741285
BUW,Burley-in-Wharfedale Rail Station,416300,445805,2,SE1630045805,53.908149,-1.7533719
BUB,Burnley Barracks Rail Station,383095,432760,2,SD8309532760,53.790877,-2.2580857
BNC,Burnley Central Rail Station,383960,433050,1,SD8396033050,53.793511,-2.244971
BYM,Burnley Manchester Road Rail Station,383700,432100,1,SD8370032100,53.784964,-2.2488672
BUO,Bursledon Rail Station,448985,109585,3,SU4898509585,50.883686,-1.3050323
BUT,Burton-on-Trent Rail Station,424200,323200,1,SK2420023200,52.805814,-1.6424598
BUS,Busby Rail Station,258220,656430,1,NS5822056430,55.780338,-4.2622007
BSH,Bushey Rail Station,511858,195322,2,TQ1185895322,51.64558,-0.38474914
BSH,Bushey Rail Station,511818,195340,2,TQ1181895340,51.64575,-0.38532126
BUX,Buxton Rail Station,405910,373750,2,SK0591073750,53.26072,-1.9128634
BXH,Bexleyheath Rail Station,548320,175995,2,TQ4832075995,51.463498,0.13373488
BXD,Buxted Rail Station,549688,123341,1,TQ4968823341,50.990011,0.13143893
BFN,Byfleet & New Haw Rail Station,505854,162285,1,TQ0585462285,51.349795,-0.48138975
BYE,Bynea Rail Station,254960,199115,1,SS5496099115,51.67203,-4.0988807
CAD,Cadoxton Rail Station,313240,168880,1,ST1324068880,51.412278,-3.2488953
CGW,Caergwrle Rail Station,330950,357240,1,SJ3095057240,53.107862,-3.0329127
CSK,Calstock Rail Station,243428,68775,2,SX4342868775,50.497795,-4.2089875
CBG,Cambridge Rail Station,546195,257245,2,TL4619557245,52.194066,0.13745647
CMO,Camelon Rail Station,286760,680730,2,NS8676080730,56.00609,-3.8176051
CBH,Cambridge Heath (London) Rail Station,534850,183240,1,TQ3485083240,51.531971,-0.057279063
CNL,Canley Rail Station,430880,278010,1,SP3088078010,52.399239,-1.5475747
CST,London Cannon Street Rail Station,532620,180890,2,TQ3262080890,51.511381,-0.090292977
CBB,Carbis Bay Rail Station,152930,38745,5,SW5293038745,50.197048,-5.4632629
CDB,Cardiff Bay Rail Station,319074,174883,1,ST1907474883,51.467107,-3.1664029
CDQ,Cardiff Queen Street Rail Station,318838,176539,1,ST1883876539,51.48196,-3.1701805
CRF,Carfin Rail Station,277490,658850,1,NS7749058850,55.807338,-3.9562536
CAK,Cark Rail Station,336520,476235,2,SD3652076235,54.177953,-2.9740636
CAR,Carlisle Rail Station,340240,555500,2,NY4024055500,54.89065,-2.9331916
CML,Carmyle Rail Station,264930,662230,1,NS6493062230,55.834335,-4.1581801
CAG,Carrbridge Rail Station,289878,822465,2,NH8987822465,57.2795,-3.8282028
CWS,Caersws Rail Station,302890,291880,2,SO0289091880,52.516122,-3.4324981
CFD,Castleford Rail Station,442680,425490,1,SE4268025490,53.724076,-1.3546526
CAT,Caterham Rail Station,534120,155420,1,TQ3412055420,51.28214,-0.078307118
CFB,Catford Bridge Rail Station,537365,173600,2,TQ3736573600,51.444739,-0.024791173
CTF,Catford Rail Station,537260,173560,1,TQ3726073560,51.444405,-0.026316595
CYS,Cathays Rail Station,318260,177320,1,ST1826077320,51.488897,-3.1786833
CTL,Cattal Rail Station,444640,455925,2,SE4464055925,53.997438,-1.320535
CAU,Causeland Rail Station,224830,59110,1,SX2483059110,50.405689,-4.4664478
CBP,Castle Bar Park Rail Station,515850,181765,2,TQ1585081765,51.522929,-0.33154893
CWB,Colwyn Bay Rail Station,285100,379100,2,SH8510079100,53.296357,-3.7254165
COH,Crowborough Rail Station,553472,129725,1,TQ5347229725,51.04638,0.18801242
CSD,Cobham & Stoke d'Abernon Rail Station,512341,158897,1,TQ1234158897,51.318099,-0.38934636
CBN,Camborne Rail Station,164830,39696,2,SW6483039696,50.210435,-5.2974107
CBK,Cranbrook Rail Station,299891,95461,1,SX9989195461,50.75009,-3.4204153
CLC,Castle Cary Rail Station,363490,133520,1,ST6349033520,51.099813,-2.5227943
CCT,Cathcart Rail Station,258460,660580,1,NS5846060580,55.817667,-4.260536
CDT,Caldicot Rail Station,347400,187600,1,ST4740087600,51.584789,-2.7605735
CDD,Cardenden Rail Station,321700,695000,1,NT2170095000,56.141254,-3.2616418
CDO,Cardonald Rail Station,253570,664630,1,NS5357064630,55.852567,-4.3406924
CDR,Cardross Rail Station,234480,677330,1,NS3448077330,55.960377,-4.6530731
CYB,Cefn-y-Bedd Rail Station,331060,356230,1,SJ3106056230,53.098798,-3.0310527
CFF,Croftfoot Rail Station,260480,660580,1,NS6048060580,55.818255,-4.2283246
CFL,Crossflatts Rail Station,410300,440260,1,SE1030040260,53.858464,-1.844886
CFT,Crofton Park Rail Station,536520,174740,1,TQ3652074740,51.455188,-0.036503042
CFH,Chafford Hundred Rail Station,558920,178770,2,TQ5892078770,51.485556,0.28744693
CPN,Chapelton (Devon) Rail Station,258075,126080,2,SS5807526080,51.016534,-4.0247218
CRT,Chartham Rail Station,610683,155227,1,TR1068355227,51.257264,1.0180393
CSR,Chassen Road Rail Station,375640,394440,1,SJ7564094440,53.446158,-2.3682329
CTM,Chatham Rail Station,575547,167608,1,TQ7554767608,51.380377,0.52115073
CBY,Charlbury Rail Station,435230,219440,1,SP3523019440,51.872426,-1.4896938
CCH,Chichester Rail Station,485890,104320,1,SU8589004320,50.832052,-0.78174891
CHU,Cheadle Hulme Rail Station,387570,386580,1,SJ8757086580,53.375927,-2.1883027
CED,Cheddington Rail Station,492232,218549,1,SP9223218549,51.857917,-0.66215184
CTH,Chadwell Heath Rail Station,547650,187610,1,TQ4765087610,51.568037,0.12895837
CHE,Cheam Rail Station,524447,163336,1,TQ2444763336,51.355477,-0.21416752
CEF,Chapel-en-le-Frith Rail Station,405510,379480,1,SK0551079480,53.312229,-1.9187624
CEL,Chelford Rail Station,381385,374850,2,SJ8138574850,53.270308,-2.280577
CPW,Chepstow Rail Station,353600,193700,2,ST5360093700,51.640178,-2.6719052
CHN,Cheshunt Rail Station,536647,202307,1,TL3664702307,51.702875,-0.023959722
CNO,Chetnole Rail Station,359778,107585,2,ST5977807585,50.866361,-2.5729256
CHD,Chesterfield Rail Station,438800,371400,1,SK3880071400,53.238219,-1.4201158
CHF,Church Fenton Rail Station,450940,436980,2,SE5094036980,53.826599,-1.2275888
CHT,Chathill Rail Station,418630,627040,1,NU1863027040,55.536731,-1.7063751
CHI,Chingford Rail Station,539200,194610,1,TQ3920094610,51.633085,0.009897043
CPM,Chippenham Rail Station,392080,173730,4,ST9208073730,51.462486,-2.1153939
CRK,Chirk Rail Station,328470,337830,2,SJ2847037830,52.933086,-3.0656431
CHK,Chiswick Rail Station,520380,177220,1,TQ2038077220,51.481135,-0.2678352
CFO,Chalfont & Latimer Rail Station,499647,197573,1,SU9964797573,51.668107,-0.56052638
CHW,Chalkwell Rail Station,585303,185582,2,TQ8530385582,51.538717,0.67059259
CHM,Chelmsford Rail Station,570552,207068,1,TL7055207068,51.736371,0.4685721
CLD,Chelsfield Rail Station,546950,164020,1,TQ4695064020,51.356254,0.10906982
CNM,Cheltenham Spa Rail Station,393242,222099,1,SO9324222099,51.897396,-2.09962
CHL,Chilworth Rail Station,503130,147257,1,TQ0313047257,51.215211,-0.52482412
CLY,Chinley Rail Station,403830,382600,2,SK0383082600,53.340288,-1.9439407
CHO,Cholsey Rail Station,458452,186039,1,SU5845286039,51.570201,-1.1580229
BSV,Buckshaw Parkway Rail Station,356441,419855,0,SD5644119855,53.673339,-2.6608299
CRL,Chorley Rail Station,358666,417520,3,SD5866617520,53.652534,-2.6268406
CTW,Church & Oswaldtwistle Rail Station,374300,428310,2,SD7430028310,53.750519,-2.3912119
CLN,Chapeltown Rail Station,435533,396309,2,SK3553396309,53.462335,-1.4662753
CWC,Chappel & Wakes Colne Rail Station,589770,228860,1,TL8977028860,51.925904,0.75850117
CHR,Christchurch Rail Station,415300,93200,2,SZ1530093200,50.738212,-1.784546
CHC,Charing Cross (Glasgow) Rail Station,258050,665830,1,NS5805065830,55.86468,-4.2698199
CHH,Christs Hospital Rail Station,514800,129200,1,TQ1480029200,51.050684,-0.36355633
CLW,Chorleywood Rail Station,502597,196090,1,TQ0259796090,51.654247,-0.51832004
CHX,London Charing Cross Rail Station,530235,180455,2,TQ3023580455,51.508026,-0.12480219
CHP,Chipstead Rail Station,527685,158275,2,TQ2768558275,51.309276,-0.16950322
CIT,Chislehurst Rail Station,543200,169400,1,TQ4320069400,51.405555,0.057417972
CRD,Chester Road Rail Station,411460,293100,1,SP1146093100,52.535645,-1.8324793
CSN,Chessington North Rail Station,518400,164145,2,TQ1840064145,51.364039,-0.30069913
CSS,Chessington South Rail Station,517900,163300,1,TQ1790063300,51.356549,-0.30815757
CTR,Chester Rail Station,341335,366985,2,SJ4133566985,53.196694,-2.8795935
CSW,Chestfield & Swalecliffe Rail Station,613615,166817,3,TR1361566817,51.36024,1.0669306
CTE,Chatelherault Rail Station,274320,654250,1,NS7432054250,55.765217,-4.0046743
CYT,Cherry Tree Rail Station,365900,426400,1,SD6590026400,53.732869,-2.5183788
CHY,Chertsey Rail Station,503825,166390,2,TQ0382566390,51.387067,-0.50931661
CIM,Cilmeri Rail Station,300440,251250,1,SO0044051250,52.150528,-3.456541
CKH,Corkerhill Rail Station,253914,662940,1,NS5391462940,55.837499,-4.3342924
CLT,Clacton-on-Sea Rail Station,617600,215300,2,TM1760015300,51.794001,1.1540917
CLA,Clandon Rail Station,504560,152714,1,TQ0456052714,51.264004,-0.50276609
CPT,Clapton Rail Station,534780,186540,1,TQ3478086540,51.561642,-0.057024654
CLR,Clarbeston Road Rail Station,201500,220940,1,SN0150020940,51.851664,-4.8835476
CLV,Claverdon Rail Station,420800,264370,1,SP2080064370,52.277089,-1.6965598
HYH,Hythe (Essex) Rail Station,601570,224837,1,TM0157024837,51.885638,0.92752757
CET,Colchester Town Rail Station,600000,224865,3,TM0000024865,51.886454,0.90476252
COL,Colchester Rail Station,599100,226417,2,TL9910026417,51.900712,0.89259811
CIR,Caledonian Road & Barnsbury Rail Station,530695,184363,3,TQ3069584363,51.543039,-0.11672925
CAC,Caldercruix Rail Station,282030,667700,0,NS8203067700,55.887942,-3.887711
CEA,Cleland Rail Station,280365,658470,1,NS8036558470,55.804646,-3.9102439
CFN,Clifton Down Rail Station,357600,174130,1,ST5760074130,51.464543,-2.6117408
CLM,Collingham Rail Station,483680,361500,1,SK8368061500,53.144085,-0.7503939
CLH,Clitheroe Rail Station,374170,441990,1,SD7417041990,53.873465,-2.3943363
CIL,Chilham Rail Station,607800,153700,1,TR0780053700,51.244609,0.9758956
CLK,Clock House Rail Station,536370,169550,1,TQ3637069550,51.408585,-0.040657061
CLP,Clapham High Street Rail Station,529820,175710,1,TQ2982075710,51.465479,-0.13252168
CLJ,Clapham Junction Rail Station,527205,175500,1,TQ2720575500,51.464185,-0.17022147
CLJ,Clapham Junction Rail Station,527200,175500,1,TQ2720075500,51.464186,-0.17029341
CLJ,Clapham Junction Rail Station,527201,175500,2,TQ2720175500,51.464186,-0.17027902
CLJ,Clapham Junction Rail Station,527202,175500,2,TQ2720275500,51.464186,-0.17026464
CLJ,Clapham Junction Rail Station,527203,175500,2,TQ2720375500,51.464186,-0.17025025
CPY,Clapham (N Yorks) Rail Station,373265,467800,2,SD7326567800,54.105384,-2.4103759
CKS,Clarkston Rail Station,257410,657460,1,NS5741057460,55.789347,-4.2756437
CLS,Chester-le-Street Rail Station,427190,551170,1,NZ2719051170,54.854593,-1.5780153
CLE,Cleethorpes Rail Station,530630,409060,2,TA3063009060,53.561905,-0.029220927
CLI,Clifton (Manchester) Rail Station,379230,402915,2,SD7923002915,53.522488,-2.3147463
CWL,Colwall Rail Station,375635,242450,1,SO7563542450,52.079867,-2.35695
CYK,Clydebank Rail Station,249768,670121,2,NS4976870121,55.90069,-4.4044138
CLG,Claygate Rail Station,515097,163755,1,TQ1509763755,51.361212,-0.34824778
CUW,Clunderwen Rail Station,211900,219300,1,SN1190019300,51.840538,-4.7318417
CMH,Cwmbach Rail Station,302400,201300,1,SO0240001300,51.701926,-3.413723
CAM,Camberley Rail Station,487573,160441,2,SU8757360441,51.336326,-0.74427168
CUB,Cumbernauld Rail Station,276410,673880,2,NS7641073880,55.942024,-3.9803343
CBL,Cambuslang Rail Station,263950,660620,1,NS6395060620,55.819605,-4.1730083
CMD,Camden Road Rail Station,529175,184185,2,TQ2917584185,51.541789,-0.1387009
CMR,Cromer Rail Station,621410,342040,2,TG2141042040,52.930083,1.2928244
CMN,Carmarthen Rail Station,241280,219710,2,SN4128019710,51.853351,-4.3059608
CAO,Cannock Rail Station,398600,309830,2,SJ9860009830,52.686159,-2.0221473
ZCW,Canada Water Rail Station,535475,179475,0,TQ3547579475,51.497988,-0.049719833
CNN,Canonbury Rail Station,532380,185040,2,TQ3238085040,51.548731,-0.092190926
CAN,Carnoustie Rail Station,356600,734500,1,NO5660034500,56.500562,-2.7066003
CBE,Canterbury East Rail Station,614645,157285,1,TR1464557285,51.274266,1.0759684
CBW,Canterbury West Rail Station,614552,158395,1,TR1455258395,51.284268,1.0753031
CNY,Cantley Rail Station,638140,303680,1,TG3814003680,52.578746,1.5134122
CAY,Carntyne Rail Station,263725,664555,2,NS6372564555,55.854871,-4.1785721
CBC,Coatbridge Central Rail Station,272930,665125,2,NS7293065125,55.862504,-4.0318967
CBS,Coatbridge Sunnyside Rail Station,273170,665600,2,NS7317065600,55.866832,-4.028287
COA,Coatdyke Rail Station,274620,665280,1,NS7462065280,55.864339,-4.0049843
COB,Cooden Beach Rail Station,570992,106566,1,TQ7099206566,50.833371,0.42685875
CSL,Codsall Rail Station,386440,303300,1,SJ8644003300,52.627286,-2.2017628
CGN,Cogan Rail Station,317460,172560,1,ST1746072560,51.445991,-3.1890898
CBR,Cooksbridge Rail Station,540077,113474,1,TQ4007713474,50.903755,-0.009202748
CEH,Coleshill Parkway Rail Station,419900,291000,2,SP1990091000,52.516525,-1.7081772
CNE,Colne Rail Station,388135,439850,3,SD8813539850,53.854741,-2.1818591
CDS,Coulsdon South Rail Station,529870,159060,3,TQ2987059060,51.315836,-0.13788729
CDN,Coulsdon Town Rail Station,530091,159756,0,TQ3009159756,51.322041,-0.13446423
CME,Combe (Oxon) Rail Station,441850,215060,3,SP4185015060,51.832592,-1.3940732
COM,Commondale Rail Station,466500,510030,2,NZ6650010030,54.481273,-0.97514796
CNS,Conisbrough Rail Station,450900,399450,1,SK5090099450,53.489307,-1.2343314
CNG,Congleton Rail Station,387220,362320,1,SJ8722062320,53.157853,-2.19258
CON,Connel Ferry Rail Station,191470,734050,3,NM9147034050,56.452351,-5.3854408
CBD,Conon Bridge Rail Station,254105,855032,1,NH5410555032,57.56175,-4.4404052
CEY,Cononley Rail Station,399305,446825,2,SD9930546825,53.917569,-2.0120677
CNW,Conwy Rail Station,278049,377466,2,SH7804977466,53.2801,-3.8305241
COO,Cookham Rail Station,488690,185060,1,SU8869085060,51.557461,-0.72207904
COE,Coombe Junction Halt (Rail Station),223885,63619,2,SX2388563619,50.445918,-4.4818511
COP,Copplestone Rail Station,276700,103120,1,SS7670003120,50.814465,-3.7515716
COR,Corby Rail Station,489160,288690,1,SP8916088690,52.48885,-0.68833537
CPA,Corpach Rail Station,209680,776720,1,NN0968076720,56.842825,-5.1219564
CRR,Corrour Rail Station,235620,766410,1,NN3562066410,56.760212,-4.6906001
COY,Coryton Rail Station,314630,180888,2,ST1463080888,51.520434,-3.2318178
CSY,Coseley Rail Station,394280,294140,1,SO9428094140,52.545081,-2.0857775
COS,Cosford Rail Station,379780,305275,2,SJ7978005275,52.644832,-2.3002747
CSA,Cosham Rail Station,465765,105125,4,SU6576505125,50.841922,-1.0673287
COT,Cottingley Rail Station,427274,430242,2,SE2727430242,53.767815,-1.5877081
CAA,Coventry Arena Rail Station,434479,283428,1,SP3447983428,52.447731,-1.4941246
COV,Coventry Rail Station,433200,278200,1,SP3320078200,52.400812,-1.5134596
CWN,Cowden Rail Station,547658,141714,1,TQ4765841714,51.155636,0.11003273
CPU,Capenhurst Rail Station,337240,374100,1,SJ3724074100,53.260172,-2.9422848
CRA,Cradley Heath Rail Station,393950,285750,1,SO9395085750,52.469652,-2.0904881
CRV,Craven Arms Rail Station,343175,283060,2,SO4317583060,52.442537,-2.8374218
CRW,Crawley Rail Station,527029,136332,2,TQ2702936332,51.112212,-0.18667293
CRB,Corbridge Rail Station,398920,563515,2,NY9892063515,54.966259,-2.0184001
CKL,Corkickle Rail Station,297740,517420,1,NX9774017420,54.541678,-3.582164
CDF,Cardiff Central Rail Station,318194,175889,1,ST1819475889,51.476024,-3.1793017
CDI,Crediton Rail Station,284005,99485,2,SX8400599485,50.783301,-3.6467775
CES,Cressing Rail Station,577648,220224,1,TL7764820224,51.852335,0.57796106
CRE,Crewe Rail Station,371100,354800,1,SJ7110054800,53.089623,-2.4329688
CRY,Crayford Rail Station,551510,174395,2,TQ5151074395,51.448278,0.17893608
CGD,Craigendoran Rail Station,231000,681300,1,NS3100081300,55.994795,-4.7112436
CWH,Crews Hill Rail Station,530970,200110,1,TL3097000110,51.684484,-0.10688709
CCC,Criccieth Rail Station,249660,338010,2,SH4966038010,52.918409,-4.2375118
CRI,Cricklewood Rail Station,524000,185910,2,TQ2400085910,51.558451,-0.21267663
CKN,Crewkerne Rail Station,345320,108515,2,ST4532008515,50.873534,-2.778496
CLU,Carluke Rail Station,283990,650200,1,NS8399050200,55.731263,-3.8489248
CTN,Charlton Rail Station,541130,178385,2,TQ4113078385,51.486812,0.031257494
CRM,Cramlington Rail Station,425720,577110,1,NZ2572077110,55.087767,-1.598595
CNF,Carnforth Rail Station,349700,470700,2,SD4970070700,54.129676,-2.7712324
CHG,Charing (Kent) Rail Station,595005,149132,1,TQ9500549132,51.208098,0.79033116
CNR,Crianlarich Rail Station,238460,725100,2,NN3846025100,56.390475,-4.6184334
CKT,Crookston Rail Station,252030,663540,2,NS5203063540,55.842312,-4.3646749
CMF,Cromford Rail Station,430275,357400,2,SK3027557400,53.11293,-1.5491619
COI,Crosshill Rail Station,258750,662310,1,NS5875062310,55.833284,-4.2568112
CSO,Croston Rail Station,348710,419290,1,SD4871019290,53.667558,-2.7777497
CRH,Crouch Hill Rail Station,530585,187505,2,TQ3058587505,51.5713,-0.11714882
CWE,Crowle Rail Station,478380,411000,1,SE7838011000,53.589732,-0.81735861
CRO,Croy Rail Station,272980,675500,1,NS7298075500,55.955676,-4.0359759
CPH,Caerphilly Rail Station,315650,186560,1,ST1565086560,51.571575,-3.2184819
CPK,Carpenders Park Rail Station,511818,193404,1,TQ1181893404,51.628349,-0.3859391
CSB,Carshalton Beeches Rail Station,527531,163627,1,TQ2753163627,51.357409,-0.16979704
CSH,Carshalton Rail Station,527739,164861,1,TQ2773964861,51.368453,-0.16636853
CKY,Crosskeys Rail Station,322132,191943,0,ST2213291943,51.6209,-3.1261699
CMY,Crossmyloof Rail Station,257030,662440,1,NS5703062440,55.833944,-4.2843173
CSG,Cressington Rail Station,339400,385040,1,SJ3940085040,53.358747,-2.9120028
CRS,Carstairs Rail Station,295213,645437,1,NS9521345437,55.691045,-3.6684732
CTO,Carlton Rail Station,461980,341255,2,SK6198041255,52.965086,-1.078655
CDY,Cartsdyke Rail Station,229500,675500,1,NS2950075500,55.942212,-4.7315906
CWU,Crowhurst Rail Station,576028,112879,2,TQ7602812879,50.888578,0.50133653
CWD,Creswell (Derbys) Rail Station,452365,374410,2,SK5236574410,53.264111,-1.2163948
CRN,Crowthorne Rail Station,482294,163735,1,SU8229463735,51.366726,-0.81927337
CYP,Crystal Palace Rail Station,534120,170550,1,TQ3412070550,51.418107,-0.072609875
IMW,Imperial Wharf Rail Station,526300,176675,0,TQ2630076675,51.474947,-0.18282275
CFR,Chandlers Ford Rail Station,443255,120655,2,SU4325520655,50.983682,-1.3851703
CRG,Cross Gates Rail Station,436215,434430,2,SE3621534430,53.804912,-1.4515804
CAS,Castleton (Manchester) Rail Station,388300,410600,1,SD8830010600,53.591845,-2.1782339
CTT,Church Stretton Rail Station,345585,293588,2,SO4558593588,52.53742,-2.8036943
CTK,City Thameslink Rail Station,531690,181150,2,TQ3169081150,51.513934,-0.10358964
CLL,Collington Rail Station,573153,107296,2,TQ7315307296,50.839287,0.4578614
CSM,Castleton Moor Rail Station,468370,508485,2,NZ6837008485,54.467142,-0.94664835
CGM,Cottingham Rail Station,505100,432880,1,TA0510032880,53.781647,-0.40643397
CUD,Cuddington Rail Station,360100,371600,1,SJ6010071600,53.239918,-2.5993062
CUF,Cuffley Rail Station,530700,202800,1,TL3070002800,51.70872,-0.10978341
CUM,Culham Rail Station,452915,195276,1,SU5291595276,51.653792,-1.2365137
CUA,Culrain Rail Station,257680,894770,1,NH5768094770,57.919512,-4.4042705
CUP,Cupar Rail Station,337700,714300,1,NO3770014300,56.316986,-3.0087561
CUH,Curriehill Rail Station,317640,668280,1,NT1764068280,55.900564,-3.3187513
COW,Cowdenbeath Rail Station,316570,691850,2,NT1657091850,56.11209,-3.3431857
CWM,Cwmbran Rail Station,329800,195800,2,ST2980095800,51.656584,-3.0162033
CUX,Cuxton Rail Station,571435,166750,1,TQ7143566750,51.373925,0.4617086
CYN,Cynghordy Rail Station,280220,240677,1,SN8022040677,52.051496,-3.7482105
DSY,Daisy Hill Rail Station,365910,404880,1,SD6591004880,53.539451,-2.515861
DAG,Dalgety Bay Rail Station,314890,684090,1,NT1489084090,56.042093,-3.3677205
DMR,Dalmuir Rail Station,248420,671420,1,NS4842071420,55.911928,-4.4266808
DLY,Dalry Rail Station,229752,649195,2,NS2975249195,55.706219,-4.7110795
DLJ,Dalston Junction Rail Station,533570,184780,1,TQ3357084780,51.546114,-0.075137568
DLK,Dalston Kingsland Rail Station,533525,185005,2,TQ3352585005,51.548147,-0.075700823
DLS,Dalston (Cumbria) Rail Station,336600,550600,1,NY3660050600,54.846175,-2.9888519
DLT,Dalton Rail Station,323100,473800,1,SD2310073800,54.154235,-3.1790027
DLW,Dalwhinnie Rail Station,263420,784900,2,NN6342084900,56.935168,-4.2461984
DNY,Danby Rail Station,470685,508410,2,NZ7068508410,54.466152,-0.9109558
DCT,Danescourt Rail Station,314447,178674,2,ST1444778674,51.500504,-3.2339168
DZY,Danzey Rail Station,412305,269650,2,SP1230569650,52.324811,-1.8208772
DAN,Darnall Rail Station,439170,387687,2,SK3917087687,53.384583,-1.4125671
DSM,Darsham Rail Station,640480,269720,1,TM4048069720,52.272998,1.52347
DFD,Dartford Rail Station,554314,174378,1,TQ5431474378,51.447369,0.2192478
DWN,Darwen Rail Station,369400,422500,2,SD6940022500,53.698034,-2.4649397
DAT,Datchet Rail Station,498740,176970,1,SU9874076970,51.483075,-0.57942189
DVN,Davenport Rail Station,389925,388240,2,SJ8992588240,53.390899,-2.1529578
DWL,Dawlish Rail Station,296400,76700,2,SX9640076700,50.580819,-3.4646252
DWW,Dawlish Warren Rail Station,297930,78660,2,SX9793078660,50.598709,-3.4435614
KVD,Kelvindale Rail Station,255670,669125,2,NS5567069125,55.893554,-4.3095725
DEA,Deal Rail Station,637424,152584,2,TR3742452584,51.223043,1.3988469
DEN,Dean Rail Station,425695,127075,2,SU2569527075,51.042459,-1.634867
DGY,Deganwy Rail Station,277900,379100,1,SH7790079100,53.294746,-3.8333862
DHN,Deighton Rail Station,416490,419140,2,SE1649019140,53.668481,-1.7518964
DLM,Delamere Rail Station,355600,370400,1,SJ5560070400,53.228774,-2.6665603
DNM,Denham Rail Station,504214,187733,1,TQ0421487733,51.578836,-0.49743684
DGC,Denham Golf Club Rail Station,502800,187900,1,TQ0280087900,51.580596,-0.51778666
DMK,Denmark Hill Rail Station,532810,176090,1,TQ3281076090,51.468201,-0.089360881
DNT,Dent Rail Station,376425,487480,1,SD7642587480,54.282407,-2.3635986
DPD,Dorking Deepdene Rail Station,517051,150180,2,TQ1705150180,51.238802,-0.32464318
DEP,Deptford Rail Station,537160,177390,1,TQ3716077390,51.478846,-0.026270211
DBR,Derby Road (Ipswich) Rail Station,618320,243910,1,TM1832043910,52.050553,1.1826433
DPT,Devonport Rail Station,245755,55435,2,SX4575555435,50.378532,-4.1707098
DGL,Dingle Road Rail Station,318040,171890,1,ST1804071890,51.440052,-3.1805905
DDK,Dagenham Dock Rail Station,548975,182980,2,TQ4897582980,51.526088,0.14610289
DID,Didcot Parkway Rail Station,452523,190507,1,SU5252390507,51.610953,-1.2428935
DIG,Digby & Sowton Rail Station,296062,91520,2,SX9606291520,50.713988,-3.4735604
DMH,Dilton Marsh Rail Station,385585,150000,2,ST8558550000,51.248985,-2.2079153
DNS,Dinas Powys Rail Station,315400,171000,1,ST1540071000,51.431663,-3.2183515
DMG,Dinas (Rhondda) Rail Station,300570,191980,2,ST0057091980,51.617832,-3.437541
DIN,Dingwall Rail Station,255323,858608,2,NH5532358608,57.594234,-4.4221987
DND,Dinsdale Rail Station,434600,513400,1,NZ3460013400,54.514727,-1.467065
DSL,Disley Rail Station,397270,384590,1,SJ9727084590,53.358181,-2.0424815
DIS,Diss Rail Station,612730,279660,2,TM1273079660,52.373656,1.1236974
DAL,Dalmally Rail Station,215980,727210,2,NN1598027210,56.401188,-4.983552
DAK,Dalmarnock Rail Station,261230,663210,1,NS6123063210,55.842084,-4.2177085
DAM,Dalmeny Rail Station,313900,677900,1,NT1390077900,55.986317,-3.3816196
DLR,Dalreoch Rail Station,239120,675710,1,NS3912075710,55.947414,-4.5778628
DAR,Darlington Rail Station,429400,514000,1,NZ2940014000,54.520446,-1.5473238
DWD,Dolwyddelan Rail Station,273740,352190,1,SH7374052190,53.052011,-3.8851321
DBC,Dumbarton Central Rail Station,239800,675600,2,NS3980075600,55.946653,-4.5669205
DBE,Dumbarton East Rail Station,240580,675080,1,NS4058075080,55.942245,-4.5541366
DBD,Denby Dale Rail Station,422400,408500,1,SE2240008500,53.572629,-1.6632104
DFE,Dunfermline Town Rail Station,309668,687102,3,NT0966887102,56.068189,-3.4525286
DFL,Dunfermline Queen Margaret Rail Station,311630,688440,1,NT1163088440,56.080573,-3.4214677
DNL,Dunlop Rail Station,241000,649400,1,NS4100049400,55.711878,-4.5323887
DNO,Dunrobin Castle Rail Station,284860,901250,2,NC8486001250,57.985532,-3.9489208
DOT,Dunston Rail Station,423025,561770,2,NZ2302561770,54.950054,-1.6420444
DTG,Dinting Rail Station,402070,394730,1,SK0207094730,53.449329,-1.9702986
DTN,Denton Rail Station,391355,395576,2,SJ9135595576,53.456864,-2.1316595
DOC,Dockyard (Plymouth) Rail Station,245398,55850,2,SX4539855850,50.382167,-4.1758976
DOD,Dodworth Rail Station,431130,405400,2,SE3113005400,53.544323,-1.5316907
DOL,Dolau Rail Station,313920,267110,1,SO1392067110,52.295349,-3.2636203
DLH,Doleham Rail Station,583550,116480,2,TQ8355016480,50.918587,0.60997476
DLG,Dolgarrog Rail Station,278309,367024,1,SH7830967024,53.186346,-3.8226361
DON,Doncaster Rail Station,457125,403175,2,SE5712503175,53.522148,-1.1398452
DOR,Dore & Totley Rail Station,432380,381300,2,SK3238081300,53.327633,-1.5152976
DDG,Dorridge Rail Station,416920,274920,1,SP1692074920,52.372067,-1.7529003
DKG,Dorking Rail Station,517073,150417,1,TQ1707350417,51.240928,-0.32425077
DMS,Dormans Rail Station,539662,141508,1,TQ3966241508,51.15579,-0.004308262
DVP,Dover Priory Rail Station,631380,141464,1,TR3138041464,51.125699,1.3052936
DVC,Dovercourt Rail Station,625597,231777,2,TM2559731777,51.938737,1.280611
DVY,Dovey Junction Rail Station,269690,298020,1,SN6969098020,52.564357,-3.9239021
DOW,Downham Market Rail Station,560300,303330,1,TF6030003330,52.604107,0.36568107
DRG,Drayton Green Rail Station,515960,181065,2,TQ1596081065,51.516615,-0.33019424
DBY,Derby Rail Station,436182,335593,1,SK3618235593,52.916546,-1.4633547
DCH,Dorchester South Rail Station,369223,90053,1,SY6922390053,50.70929,-2.4372427
DCW,Dorchester West Rail Station,368850,90240,1,SY6885090240,50.710952,-2.4425409
DRM,Drem Rail Station,351080,679410,1,NT5108079410,56.005121,-2.7860478
DHM,Durham Rail Station,427000,542800,1,NZ2700042800,54.779389,-1.581752
DRF,Driffield Rail Station,502700,457300,2,TA0270057300,54.001527,-0.434665
DRI,Drigg Rail Station,306340,498900,1,SD0634098900,54.376958,-3.4434129
DKT,Dorking West Rail Station,515987,149869,1,TQ1598749869,51.236224,-0.33997855
DMC,Drumchapel Rail Station,252380,670490,2,NS5238070490,55.904811,-4.3628787
DFR,Drumfrochar Rail Station,226800,675500,1,NS2680075500,55.941246,-4.7747659
DRU,Drumgelloch Rail Station,278140,665515,2,NS7814065515,55.867352,-3.948882
DUR,Durrington-on-Sea Rail Station,512000,103200,1,TQ1200003200,50.817526,-0.41146869
DRO,Dronfield Rail Station,435500,378400,1,SK3550078400,53.301367,-1.4687786
DRT,Darton Rail Station,431100,410300,1,SE3110010300,53.588366,-1.5316574
DTW,Droitwich Spa Rail Station,389290,263350,2,SO8929063350,52.268201,-2.1583631
DMY,Drumry Rail Station,250967,670514,1,NS5096770514,55.90459,-4.3854722
DYP,Drayton Park Rail Station,531445,185465,2,TQ3144585465,51.552768,-0.10550901
DNG,Dunton Green Rail Station,551454,157500,1,TQ5145457500,51.296489,0.17093712
DUD,Duddeston Rail Station,408830,287835,1,SP0883087835,52.488361,-1.8713905
DDP,Dudley Port Rail Station,396740,291865,1,SO9674091865,52.52465,-2.0494796
DFI,Duffield Rail Station,434604,343575,2,SK3460443575,52.988399,-1.4859717
DRN,Duirinish Rail Station,177845,831521,2,NG7784531521,57.319975,-5.6913159
DST,Duke Street Rail Station,261580,665020,1,NS6158065020,55.858435,-4.2130475
DUL,Dullingham Rail Station,561832,258575,2,TL6183258575,52.201649,0.36666383
DUM,Dumbreck Rail Station,256010,663666,3,NS5601063666,55.844647,-4.301239
DMF,Dumfries Rail Station,297660,576520,2,NX9766076520,55.072555,-3.6043032
DMP,Dumpton Park Rail Station,638670,166307,1,TR3867066307,51.345698,1.4258186
DBL,Dunblane Rail Station,278110,700990,2,NN7811000990,56.185888,-3.9654859
DUN,Dunbar Rail Station,368080,678490,1,NT6808078490,55.998292,-2.5133461
DCG,Duncraig Rail Station,181207,833239,2,NG8120733239,57.337,-5.6371305
DEE,Dundee Rail Station,340242,729793,1,NO4024229793,56.456485,-2.9712045
DKD,Dunkeld & Birnam Rail Station,303080,741680,1,NO0308041680,56.557055,-3.5783989
CDU,Cam & Dursley Rail Station,375290,202160,1,SO7529002160,51.717617,-2.3590827
DVH,Dove Holes Rail Station,407445,378125,2,SK0744578125,53.300026,-1.8897515
DEW,Dewsbury Rail Station,424325,421805,3,SE2432521805,53.69213,-1.6331064
DYC,Dyce Rail Station,388480,812780,1,NJ8848012780,57.205648,-2.1923223
DYF,Dyffryn Ardudwy Rail Station,258170,323330,1,SH5817023330,52.78885,-4.1046436
EAL,Ealing Broadway Rail Station,517938,180913,1,TQ1793880913,51.51484,-0.30175176
ELD,Earlswood (Surrey) Rail Station,527820,149160,1,TQ2782049160,51.227327,-0.17082306
EBK,Eastbrook Rail Station,316260,171650,1,ST1626071650,51.437634,-3.2061374
EBL,East Boldon Rail Station,437230,561460,1,NZ3723061460,54.946414,-1.4203139
EBN,Eastbourne Rail Station,560959,99124,1,TV6095999124,50.769376,0.28124693
EBD,Ebbsfleet International Rail Station,561394,174108,0,TQ6139474108,51.442972,0.32092084
EBV,Ebbw Vale Parkway Rail Station,317539,207172,0,SO1753907172,51.757142,-3.1961027
EBB,Ebbw Vale Town Rail Station,317128,209353,1,SO1712809353,51.776686,-3.2025769
ECC,Eccles Rail Station,377900,398790,1,SJ7790098790,53.485357,-2.3345143
ECS,Eccles Road Rail Station,601820,290030,1,TM0182090030,52.470882,0.96991722
ECL,Eccleston Park Rail Station,348270,392950,1,SJ4827092950,53.430785,-2.7800415
ECR,East Croydon Rail Station,532841,165770,2,TQ3284165770,51.375452,-0.092779697
EDL,Edale Rail Station,412300,385360,2,SK1230085360,53.36497,-1.8166262
EDG,Edge Hill Rail Station,337170,389950,1,SJ3717089950,53.402615,-2.9464829
EDY,East Didsbury Rail Station,385340,390300,1,SJ8534090300,53.409307,-2.2219963
EDB,Edinburgh Rail Station,325900,673900,1,NT2590073900,55.952391,-3.1882276
EDP,Edinburgh Park Rail Station,318390,671270,1,NT1839071270,55.927549,-3.3076641
EDR,Edmonton Green Rail Station,534310,193570,1,TQ3431093570,51.624927,-0.061112492
EBR,Edenbridge Rail Station,544040,147487,2,TQ4404047487,51.208434,0.060646265
EBT,Edenbridge Town Rail Station,544522,146571,1,TQ4452246571,51.200081,0.06717302
EDN,Eden Park Rail Station,537420,167520,3,TQ3742067520,51.390089,-0.026355157
EDW,East Dulwich Rail Station,533440,175360,2,TQ3344075360,51.461493,-0.080571697
EFL,East Farleigh Rail Station,573484,153607,1,TQ7348453607,51.255236,0.48472895
EFF,Effingham Junction Rail Station,510271,155892,2,TQ1027155892,51.291494,-0.4199654
EGG,Eggesford Rail Station,268230,111480,1,SS6823011480,50.887735,-3.8747451
EGH,Egham Rail Station,501143,171073,1,TQ0114371073,51.429645,-0.54651221
EAG,Eaglescliffe Rail Station,442200,515100,1,NZ4220015100,54.52943,-1.349437
EGF,East Garforth Rail Station,441565,433035,2,SE4156533035,53.791976,-1.3705368
EGR,East Grinstead Rail Station,538800,138200,2,TQ3880038200,51.126272,-0.017900092
EGT,Egton Rail Station,480430,505380,2,NZ8043005380,54.43748,-0.76146493
EKL,East Kilbride Rail Station,263310,654670,2,NS6331054670,55.766002,-4.1802269
ESL,Eastleigh Rail Station,445732,119071,2,SU4573219071,50.969248,-1.3500845
ELG,Elgin Rail Station,321823,862199,1,NJ2182362199,57.642908,-3.3112459
ELE,Elmers End Rail Station,535780,168411,1,TQ3578068411,51.398491,-0.049570346
ESW,Elmswell Rail Station,598970,263980,1,TL9897063980,52.238039,0.91258945
ESD,Elmstead Woods Rail Station,542250,170660,1,TQ4225070660,51.417116,0.044274063
EPH,Elephant & Castle Rail Station,532085,178945,4,TQ3208578945,51.494027,-0.098725573
ELR,Elsecar Rail Station,438080,400370,1,SE3808000370,53.498657,-1.4274238
ESM,Elsenham Rail Station,553321,227014,1,TL5332127014,51.920544,0.22807028
ELP,Ellesmere Port Rail Station,340330,376510,2,SJ4033076510,53.282189,-2.8964225
ELW,Eltham Rail Station,542700,174960,3,TQ4270074960,51.455642,0.052472335
ELO,Elton & Orston Rail Station,476990,340030,2,SK7699040030,52.952135,-0.85551239
ELS,Elstree & Borehamwood Rail Station,519080,196320,2,TQ1908096320,51.653068,-0.28008153
EWD,Earlswood (West Midlands) Rail Station,409550,274290,1,SP0955074290,52.36658,-1.8611695
ELY,Ely Rail Station,554350,279440,2,TL5435079440,52.391228,0.26682759
EML,East Malling Rail Station,570200,156900,1,TQ7020056900,51.285808,0.43928028
EMD,East Midlands Parkway Rail Station,449700,329700,3,SK4970029700,52.862499,-1.2632319
EMP,Emerson Park Rail Station,553965,187865,2,TQ5396587865,51.568641,0.22011324
EMS,Emsworth Rail Station,474825,106325,2,SU7482506325,50.851613,-0.93842971
ENC,Enfield Chase Rail Station,532180,196666,2,TQ3218096666,51.653252,-0.090696368
ENL,Enfield Lock Rail Station,536427,198745,2,TQ3642798745,51.67092,-0.028532462
ENF,Enfield Town Rail Station,532970,196550,2,TQ3297096550,51.652024,-0.079327639
ENT,Entwistle Rail Station,372700,417800,1,SD7270017800,53.655975,-2.4145447
EPD,Epsom Downs Rail Station,522806,159759,1,TQ2280659759,51.323686,-0.23895484
EPS,Epsom Rail Station,520700,160900,1,TQ2070060900,51.334391,-0.26877767
ERD,Erdington Rail Station,410985,292280,2,SP1098592280,52.528283,-1.8395089
ECP,Energlyn & Churchill Park Rail Station,314957,187866,0,ST1495787866,51.583211,-3.2287955
ERI,Eridge Rail Station,554271,134488,1,TQ5427134488,51.088964,0.20143172
ERH,Erith Rail Station,551130,178100,2,TQ5113078100,51.481669,0.17505445
EAD,Earlsfield Rail Station,526050,173040,2,TQ2605073040,51.442335,-0.18771493
ERL,Earlestown Rail Station,357750,395120,1,SJ5775095120,53.451135,-2.6376632
EAR,Earley Rail Station,475300,171900,1,SU7530071900,51.441098,-0.91798819
ESH,Esher Rail Station,514696,165824,1,TQ1469665824,51.379889,-0.35333783
EST,Easterhouse Rail Station,268210,664960,1,NS6821064960,55.859755,-4.1071763
EKB,Eskbank Rail Station,332343,665936,1,NT3234365936,55.881801,-3.083073
EXR,Essex Road Rail Station,532120,184140,1,TQ3212084140,51.540704,-0.096276056
MTC,Mitcham Eastfields Rail Station,528445,169250,1,TQ2844569250,51.407737,-0.15464603
ERA,Eastham Rake Rail Station,334721,379404,3,SJ3472179404,53.307537,-2.9811324
EGN,Eastrington Rail Station,480034,429437,1,SE8003429437,53.75516,-0.78763037
ETC,Etchingham Rail Station,571431,126301,1,TQ7143126301,51.010544,0.44235628
ETL,East Tilbury Rail Station,567634,178969,1,TQ6763478969,51.48483,0.41292779
EUS,London Euston Rail Station,529545,182675,2,TQ2954582675,51.528135,-0.13392363
EBA,Euxton Balshaw Lane Rail Station,355688,418431,2,SD5568818431,53.660478,-2.6720234
EVE,Evesham Rail Station,403706,244452,2,SP0370644452,52.098395,-1.9473135
EWE,Ewell East Rail Station,522569,162158,1,TQ2256962158,51.345298,-0.24152963
EWW,Ewell West Rail Station,521480,162660,1,TQ2148062660,51.350043,-0.25698661
EWR,East Worthing Rail Station,515975,103745,1,TQ1597503745,50.821643,-0.35489374
EXC,Exeter Central Rail Station,291875,92995,2,SX9187592995,50.726482,-3.5332764
EXD,Exeter St Davids Rail Station,291175,93320,3,SX9117593320,50.729273,-3.5432861
EXT,Exeter St Thomas Rail Station,291461,91965,2,SX9146191965,50.717146,-3.5388362
EXG,Exhibition Centre (Glasgow) Rail Station,257177,665510,2,NS5717765510,55.861549,-4.2835887
EXM,Exmouth Rail Station,300002,81170,1,SY0000281170,50.621633,-3.4149716
EXN,Exton Rail Station,298043,86399,1,SX9804386399,50.668302,-3.4440962
EYN,Eynsford Rail Station,553565,164934,1,TQ5356564934,51.362719,0.20439313
FRL,Fairlie Rail Station,221030,654640,1,NS2103054640,55.751941,-4.8532673
FCN,Falconwood Rail Station,544553,175403,2,TQ4455375403,51.459153,0.079304481
FKG,Falkirk Grahamston Rail Station,288780,680290,1,NS8878080290,56.002612,-3.785046
FKK,Falkirk High Rail Station,288300,679100,1,NS8830079100,55.991814,-3.792244
FAL,Falmouth Docks Rail Station,181777,32322,1,SW8177732322,50.150706,-5.056028
FMT,Falmouth Town Rail Station,181130,32085,4,SW8113032085,50.148339,-5.0649348
NFA,North Fambridge Rail Station,585622,197826,2,TQ8562297826,51.648582,0.6816588
FMR,Falmer Rail Station,534700,108700,1,TQ3470008700,50.862127,-0.087385503
FRM,Fareham Rail Station,456971,106257,4,SU5697106257,50.853032,-1.1920372
FNH,Farnham Rail Station,484446,146548,3,SU8444646548,51.211903,-0.79242716
FLD,Fauldhouse Rail Station,292380,660140,1,NS9238060140,55.822472,-3.7193186
FAV,Faversham Rail Station,601585,160924,1,TR0158560924,51.311712,0.8910449
FGT,Faygate Rail Station,521728,134388,2,TQ2172834388,51.095889,-0.26301866
FAZ,Fazakerley Rail Station,337916,397336,2,SJ3791697336,53.469083,-2.9367232
FRN,Fearn Rail Station,281518,878244,2,NH8151878244,57.778141,-3.9939356
FEL,Feltham Rail Station,510600,173300,1,TQ1060073300,51.447897,-0.40983823
FST,London Fenchurch Street Rail Station,533410,180940,2,TQ3341080940,51.511644,-0.078896765
FNT,Feniton Rail Station,309485,99355,2,SY0948599355,50.786675,-3.2854177
FER,Fernhill Rail Station,303600,199560,1,ST0360099560,51.686493,-3.3958826
FRY,Ferriby Rail Station,498570,425560,1,SE9857025560,53.717153,-0.50783046
FFA,Ffairfach Rail Station,262900,221200,1,SN6290021200,51.872473,-3.9928593
FGH,Fishguard Harbour Rail Station,195200,239000,1,SM9520039000,52.011541,-4.9856419
FGW,Fishguard & Goodwick Rail Station,194535,238200,0,SM9453538200,52.004112,-4.9948377
FIL,Filey Rail Station,511370,480690,3,TA1137080690,54.209857,-0.29384939
FIT,Filton Abbey Wood Rail Station,361060,178595,1,ST6106078595,51.504937,-2.5624305
FIN,Finstock Rail Station,436647,217265,1,SP3664717265,51.85278,-1.469343
FSK,Fiskerton Rail Station,473000,352000,1,SK7300052000,53.060272,-0.91218756
FZW,Fitzwilliam Rail Station,441475,415290,2,SE4147515290,53.632499,-1.3742731
FWY,Five Ways Rail Station,406010,285910,1,SP0601085910,52.471093,-1.9129543
FLE,Fleet Rail Station,481626,155260,1,SU8162655260,51.290633,-0.83080565
FLM,Flimby Rail Station,302070,533800,4,NY0207033800,54.689685,-3.52074
FLN,Flint Rail Station,324500,373100,3,SJ2450073100,53.249522,-3.1329931
FLT,Flitwick Rail Station,503390,234980,1,TL0339034980,52.00364,-0.49525786
FLI,Flixton Rail Station,374575,394184,2,SJ7457594184,53.443806,-2.3842464
FKC,Folkestone Central Rail Station,622084,136286,1,TR2208436286,51.082886,1.1694823
FKW,Folkestone West Rail Station,620985,136428,2,TR2098536428,51.084585,1.1539034
FOC,Falls of Cruachan Rail Station,207990,726750,1,NN0799026750,56.393882,-5.1124776
FLF,Flowery Field Rail Station,394716,396126,2,SJ9471696126,53.461853,-2.0810529
FLX,Felixstowe Rail Station,630250,235146,4,TM3025035146,51.967071,1.3504351
FNY,Finchley Road & Frognal Rail Station,526070,185050,1,TQ2607085050,51.550264,-0.1831406
FPK,Finsbury Park Rail Station,531358,186746,2,TQ3135886746,51.5643,-0.10628497
FOD,Ford Rail Station,500215,104280,2,TQ0021504280,50.829392,-0.57841001
FOH,Forest Hill Rail Station,535410,172940,2,TQ3541072940,51.439278,-0.053157102
FBY,Formby Rail Station,329150,406850,1,SD2915006850,53.553476,-3.0709077
FOR,Forres Rail Station,302950,858920,1,NJ0295058920,57.609795,-3.6259496
FRS,Forsinard Rail Station,289100,942500,1,NC8910042500,58.356898,-3.8968802
FOK,Four Oaks Rail Station,411750,298010,1,SP1175098010,52.579778,-1.8280317
FOX,Foxfield Rail Station,320880,485460,2,SD2088085460,54.258666,-3.2160615
FXN,Foxton Rail Station,540885,248760,2,TL4088548760,52.119212,0.056308095
FRT,Frant Rail Station,560739,136362,1,TQ6073936362,51.104027,0.29454306
FTN,Fratton Rail Station,465360,100050,1,SU6536000050,50.796337,-1.0739827
FRB,Fairbourne Rail Station,261600,312900,1,SH6160012900,52.69604,-4.0494133
FNB,Farnborough (Main) Rail Station,486850,156010,1,SU8685056010,51.296604,-0.75572569
FNN,Farnborough North Rail Station,487725,156630,1,SU8772556630,51.302043,-0.74302689
FRD,Frodsham Rail Station,351870,377895,2,SJ5187077895,53.295813,-2.7235668
FFD,Freshford Rail Station,379130,160370,1,ST7913060370,51.342028,-2.3010084
FRF,Fairfield Rail Station,390421,397183,2,SJ9042197183,53.471292,-2.1457749
FML,Frimley Rail Station,487430,157717,1,SU8743057717,51.31186,-0.74699133
FRI,Frinton-on-Sea Rail Station,623525,220426,4,TM2352520426,51.837681,1.2431706
FNC,Farncombe Rail Station,497600,145140,1,SU9760045140,51.197152,-0.60454885
ZFD,Farringdon (London) Rail Station,531560,181840,2,TQ3156081840,51.520165,-0.10520467
FNR,Farningham Road Rail Station,555595,169330,2,TQ5559569330,51.401664,0.23545206
FNW,Farnworth Rail Station,374400,406000,1,SD7440006000,53.550002,-2.3878496
FRO,Frome Rail Station,378450,147610,1,ST7845047610,51.227269,-2.3099967
FRR,Frosterley Rail Station,402390,536890,0,NZ0239036890,54.726993,-1.9644114
FRE,Freshfield Rail Station,329110,408250,1,SD2911008250,53.566052,-3.0718294
FOG,Forest Gate Rail Station,540458,185335,2,TQ4045885335,51.54943,0.02435282
FTM,Fort Matilda Rail Station,225600,677530,1,NS2560077530,55.95903,-4.7952674
FTW,Fort William Rail Station,210531,774186,1,NN1053174186,56.820443,-5.1061432
FRW,Fairwater Rail Station,314440,177940,1,ST1444077940,51.493905,-3.2338394
FZH,Frizinghall Rail Station,415305,436035,2,SE1530536035,53.820368,-1.7690011
FSB,Fishbourne Rail Station,483530,105060,1,SU8353005060,50.83905,-0.81508421
FSG,Fishersgate Rail Station,525483,105366,1,TQ2548305366,50.834233,-0.21942323
FEN,Fenny Stratford Rail Station,488245,234292,2,SP8824534292,52.000067,-0.71599733
FEA,Featherstone Rail Station,442475,420480,2,SE4247520480,53.679065,-1.3584441
FLW,Fulwell Rail Station,514830,171840,1,TQ1483071840,51.433933,-0.3494676
FNV,Furness Vale Rail Station,400840,383540,1,SK0084083540,53.34875,-1.9888446
FZP,Furze Platt Rail Station,488294,182334,1,SU8829482334,51.533019,-0.72847279
FYS,Ferryside Rail Station,236600,210400,1,SN3660010400,51.768365,-4.3694581
GAL,Galashiels Rail Station,349278,636380,1,NT4927836380,55.61835,-2.8069005
SGB,Smethwick Galton Bridge Rail Station,401420,289320,1,SP0142089320,52.501779,-1.9805109
SGB,Smethwick Galton Bridge High Level Rail Station,401421,289320,3,SP0142189320,52.501779,-1.9804962
GRF,Garforth Rail Station,440785,433540,2,SE4078533540,53.796576,-1.3823096
GAR,Garrowhill Rail Station,266800,664500,1,NS6680064500,55.855237,-4.1294604
GSD,Garsdale Rail Station,378870,491810,2,SD7887091810,54.321428,-2.3263535
GTH,Garth (Powys) Rail Station,295380,249430,1,SN9538049430,52.133235,-3.5299071
GVE,Garve Rail Station,239500,861300,2,NH3950061300,57.61304,-4.688395
GSW,Garswood Rail Station,355500,399300,1,SJ5550099300,53.488519,-2.6721345
GST,Gathurst Rail Station,354100,407200,1,SD5410007200,53.559401,-2.6943932
GTY,Gatley Rail Station,384720,388477,2,SJ8472088477,53.392903,-2.231234
GBL,Gainsborough Lea Road Rail Station,482000,388400,1,SK8200088400,53.386087,-0.76857956
GBK,Greenbank Rail Station,364450,372850,2,SJ6445072850,53.251463,-2.5342706
GNB,Gainsborough Central Rail Station,481900,389900,1,SK8190089900,53.399583,-0.76969407
GOD,Godalming Rail Station,496622,143946,1,SU9662243946,51.186585,-0.61886231
GER,Gerrards Cross Rail Station,500184,188785,1,TQ0018488785,51.589021,-0.5552754
GNF,Greenfield Rail Station,399180,404690,2,SD9918004690,53.538856,-2.0138435
GFD,Greenford Rail Station,514810,183900,2,TQ1481083900,51.54233,-0.34583719
GIG,Giggleswick Rail Station,380275,462915,2,SD8027562915,54.061799,-2.3028477
GUI,Guide Bridge Rail Station,392550,397550,1,SJ9255097550,53.474626,-2.1137106
GDP,Gidea Park Rail Station,552940,189310,1,TQ5294089310,51.581902,0.20596431
GFN,Giffnock Rail Station,256375,659125,2,NS5637559125,55.803988,-4.2930141
GIP,Gipsy Hill Rail Station,533321,171235,2,TQ3332171235,51.424451,-0.083835916
GIR,Girvan Rail Station,219030,598380,1,NX1903098380,55.246311,-4.8483812
GLS,Glaisdale Rail Station,478330,505555,2,NZ7833005555,54.43938,-0.79378779
GLH,Glasshoughton Rail Station,443530,423825,2,SE4353023825,53.709041,-1.3420051
GLZ,Glazebrook Rail Station,369555,392495,2,SJ6955592495,53.428358,-2.4596574
GBD,Gilberdyke Rail Station,483700,428700,1,SE8370028700,53.747962,-0.73224341
GOE,Goldthorpe Rail Station,445645,404390,2,SE4564504390,53.534188,-1.3128077
GFF,Gilfach Fargoed Rail Station,315300,199100,1,ST1530099100,51.684248,-3.226568
GLC,Glasgow Central Rail Station,258794,665257,3,NS5879465257,55.859755,-4.2576432
GCL,Glasgow Central Low Level Rail Station,258737,665139,2,NS5873765139,55.858678,-4.2584916
HST,High Street (Glasgow) Rail Station,259890,665200,1,NS5989065200,55.859563,-4.2401179
GLG,Glengarnock Rail Station,232190,652740,1,NS3219052740,55.738886,-4.6745016
GLQ,Glasgow Queen Street Rail Station,259190,665515,3,NS5919065515,55.862187,-4.2514558
GQL,Glasgow Queen Street Low Level Rail Station,259241,665531,2,NS5924165531,55.862345,-4.2506499
GIL,Gillingham (Dorset) Rail Station,380980,126110,3,ST8098026110,51.034033,-2.2726237
GCW,Glan Conwy Rail Station,280200,376000,1,SH8020076000,53.26742,-3.7977273
GLE,Gleneagles Rail Station,292900,710500,3,NN9290010500,56.274848,-3.7311679
GLF,Glenfinnan Rail Station,189870,780970,1,NM8987080970,56.872401,-5.4496197
GLM,Gillingham (Kent) Rail Station,577520,168365,2,TQ7752068365,51.386564,0.54985
GLT,Glenrothes with Thornton Rail Station,329110,697220,1,NT2911097220,56.162356,-3.1430153
GCR,Gloucester Rail Station,383675,218580,3,SO8367518580,51.865557,-2.2384876
GLO,Glossop Rail Station,403480,394190,1,SK0348094190,53.444468,-1.9490737
GLY,Glynde Rail Station,545790,108670,1,TQ4579008670,50.85917,0.070077291
GNH,Greenhithe for Bluewater Rail Station,558545,174842,3,TQ5854574842,51.45037,0.28029013
GNL,Green Lane Rail Station,332490,387860,1,SJ3249087860,53.383253,-3.0164147
GUN,Gunnersbury Rail Station,519835,178380,2,TQ1983578380,51.491676,-0.27528643
GTN,Grangetown (Cardiff) Rail Station,317455,174965,3,ST1745574965,51.46761,-3.1897238
GNW,Greenwich Rail Station,538060,177335,2,TQ3806077335,51.478133,-0.013339924
GOB,Gobowen Rail Station,330320,333400,4,SJ3032033400,52.893513,-3.0371725
GDL,Godley Rail Station,396460,394995,2,SJ9646094995,53.451702,-2.0547724
GMY,Goodmayes Rail Station,546400,187300,2,TQ4640087300,51.565577,0.11080707
GDN,Godstone Rail Station,536277,148357,1,TQ3627748357,51.218156,-0.050084998
GOF,Golf Street Rail Station,355800,734200,1,NO5580034200,56.497792,-2.7195435
GOL,Golspie Rail Station,282550,899750,4,NH8255099750,57.971463,-3.9872148
GOM,Gomshall Rail Station,508915,147842,2,TQ0891547842,51.219397,-0.44185218
GOO,Goole Rail Station,474414,423753,3,SE7441423753,53.704913,-0.87421346
GTR,Goostrey Rail Station,378300,369550,1,SJ7830069550,53.222551,-2.3264703
GOR,Goring & Streatley Rail Station,460247,180642,1,SU6024780642,51.521491,-1.1330494
GDH,Gordon Hill Rail Station,531880,197780,2,TQ3188097780,51.663333,-0.094610509
GBB,Gorebridge Rail Station,334560,661279,1,NT3456061279,55.840272,-3.0465153
GBS,Goring-by-Sea Rail Station,510477,103189,3,TQ1047703189,50.81772,-0.4330831
GTO,Gorton Rail Station,389064,396939,2,SJ8906496939,53.469072,-2.1662094
GPO,Gospel Oak Rail Station,528300,185670,1,TQ2830085670,51.555334,-0.15077018
GRK,Gourock Rail Station,224280,677950,1,NS2428077950,55.962318,-4.8166576
GOS,Grange-over-Sands Rail Station,341200,478150,4,SD4120078150,54.19572,-2.9027473
GWN,Gowerton Rail Station,259240,196400,1,SS5924096400,51.648724,-4.0359345
GOX,Goxhill Rail Station,509940,421310,1,TA0994021310,53.676701,-0.33712048
GRT,Grateley Rail Station,426610,141270,1,SU2661041270,51.170057,-1.6207737
GVH,Gravelly Hill Rail Station,410100,290800,1,SP1010090800,52.514994,-1.8525984
GRY,Grays Rail Station,561340,177810,1,TQ6134077810,51.476246,0.32183216
GNR,Green Road Rail Station,318930,483920,1,SD1893083920,54.244524,-3.2455708
GKC,Greenock Central Rail Station,228200,675900,3,NS2820075900,55.945338,-4.7526339
GKW,Greenock West Rail Station,227260,676160,1,NS2726076160,55.947335,-4.7678331
GEA,Gretna Green Rail Station,331960,567905,1,NY3196067905,55.001045,-3.065198
GGJ,Georgemas Junction Rail Station,315500,959300,1,ND1550059300,58.513622,-3.4521202
GGV,Gargrave Rail Station,393200,453600,1,SD9320053600,53.978415,-2.1051704
GCH,Garelochhead Rail Station,224250,691050,1,NS2425091050,56.079863,-4.8257164
GMD,Grimsby Docks Rail Station,527520,410357,1,TA2752010357,53.57432,-0.075617284
GMB,Grimsby Town Rail Station,526800,409125,2,TA2680009125,53.563427,-0.086983948
GRN,Grindleford Rail Station,425000,378800,1,SK2500078800,53.30556,-1.6262967
GRL,Greenfaulds Rail Station,275591,673147,2,NS7559173147,55.935231,-3.9930999
GMT,Grosmont Rail Station,482800,505270,1,NZ8280005270,54.436112,-0.72496562
GPK,Grange Park Rail Station,531750,195470,1,TQ3175095470,51.642606,-0.097358502
GSN,Garston (Herts) Rail Station,511965,199890,2,TQ1196599890,51.686614,-0.3817412
GRH,Gartcosh Rail Station,270029,667790,2,NS7002967790,55.885659,-4.0794941
GMG,Garth (Bridgend) Rail Station,286400,189900,2,SS8640089900,51.596454,-3.6414499
GRP,Grove Park Rail Station,540640,172145,2,TQ4064072145,51.430861,0.021725485
GRV,Gravesend Rail Station,564577,174029,1,TQ6457774029,51.441347,0.36664299
GRS,Garscadden Rail Station,252182,668590,1,NS5218268590,55.887693,-4.3650044
GTA,Great Ayton Rail Station,457405,510830,2,NZ5740510830,54.489569,-1.1153452
GRB,Great Bentley Rail Station,611198,221460,1,TM1119821460,51.851758,1.0651534
GRC,Great Chesterford Rail Station,550478,242429,1,TL5047842429,52.059809,0.19352101
GCT,Great Coates Rail Station,523900,410420,1,TA2390010420,53.575752,-0.13023046
GRA,Grantham Rail Station,491400,335200,1,SK9140035200,52.906471,-0.64245029
GMV,Great Malvern Rail Station,378300,245700,3,SO7830045700,52.109197,-2.3182708
GMN,Great Missenden Rail Station,489300,201319,1,SP8930001319,51.703517,-0.70914106
MCE,Metrocentre Rail Station,421510,562730,3,NZ2151062730,54.958748,-1.6656259
GTW,Gatwick Airport Rail Station,528700,141300,1,TQ2870041300,51.156489,-0.16104153
GLD,Guildford Rail Station,499200,149600,1,SU9920049600,51.236968,-0.58042502
GSY,Guiseley Rail Station,418830,442230,1,SE1883042230,53.875933,-1.7150799
GSL,Gunnislake Rail Station,242750,70830,2,SX4275070830,50.51608,-4.2194055
GNT,Gunton Rail Station,625523,335128,2,TG2552335128,52.866345,1.3491163
GWE,Gwersyllt Rail Station,331900,353300,1,SJ3190053300,53.072573,-3.017888
GYP,Gypsy Lane Rail Station,453200,515600,1,NZ5320015600,54.53289,-1.1793921
HAB,Habrough Rail Station,514600,413560,2,TA1460013560,53.606075,-0.26946132
HKC,Hackney Central Rail Station,534890,184925,2,TQ3489084925,51.547103,-0.056057612
HKW,Hackney Wick Rail Station,537060,184572,2,TQ3706084572,51.543409,-0.024919853
HDF,Hadfield Rail Station,402400,396000,1,SK0240096000,53.460743,-1.9653205
HAD,Haddiscoe Rail Station,645842,298493,2,TM4584298493,52.528786,1.6230071
HDW,Hadley Wood Rail Station,526225,198210,2,TQ2622598210,51.668495,-0.17617255
HDM,Haddenham & Thame Parkway Rail Station,473091,208549,1,SP7309108549,51.770854,-0.94213711
HGF,Hag Fold Rail Station,367300,404247,2,SD6730004247,53.533851,-2.4948215
HGG,Haggerston Rail Station,533555,183955,1,TQ3355583955,51.538704,-0.075666547
HAG,Hagley Rail Station,390140,280510,2,SO9014080510,52.422488,-2.1464171
HGT,Harrogate Rail Station,430413,455336,1,SE3041355336,53.993175,-1.5376078
HAC,Hackney Downs Rail Station,534555,185100,2,TQ3455585100,51.548756,-0.060819016
HAL,Hale Rail Station,376990,386930,1,SJ7699086930,53.378716,-2.3473568
HAI,Halling Rail Station,570347,164326,1,TQ7034764326,51.352476,0.44493178
HLR,Hall Road Rail Station,330468,400600,2,SD3046800600,53.497484,-3.049627
HAS,Halesworth Rail Station,638868,277868,3,TM3886877868,52.346815,1.5056674
HED,Halewood Rail Station,344856,385611,2,SJ4485685611,53.364478,-2.8301339
HMM,Hammerton Rail Station,447030,455825,2,SE4703055825,53.996328,-1.2840956
HNC,Hamilton Central Rail Station,272200,655200,3,NS7220055200,55.773192,-4.0388848
HNW,Hamilton West Rail Station,271220,655860,2,NS7122055860,55.778858,-4.0548081
HMP,Hampton (London) Rail Station,513300,169803,2,TQ1330069803,51.415933,-0.37211895
HSD,Hamstead (Birmingham) Rail Station,404915,292580,2,SP0491592580,52.531067,-1.9289777
BKQ,Birkenhead Hamilton Square Rail Station,332690,389130,1,SJ3269089130,53.394692,-3.0136796
HMW,Hampton Wick Rail Station,517450,169740,1,TQ1745069740,51.414523,-0.31248953
HND,Hanborough Rail Station,443273,214245,1,SP4327314245,51.825156,-1.3735254
HAN,Hanwell Rail Station,515390,180520,2,TQ1539080520,51.511833,-0.33858349
HPN,Hapton Rail Station,379215,431745,2,SD7921531745,53.781613,-2.3169114
HDN,Harlesden Rail Station,520940,183370,2,TQ2094083370,51.536287,-0.25766757
HMY,Hairmyres Rail Station,260800,654300,1,NS6080054300,55.761964,-4.2200107
HOH,Harrow-on-the-Hill Rail Station,515314,188012,3,TQ1531488012,51.579184,-0.33722543
HTF,Hartford Rail Station,363150,371780,1,SJ6315071780,53.241757,-2.5536294
HWC,Harwich Town Rail Station,625987,232397,1,TM2598732397,51.944144,1.2866818
HSL,Haslemere Rail Station,489802,132928,1,SU8980232928,51.088646,-0.71916262
HSK,Hassocks Rail Station,530404,115543,1,TQ3040415543,50.924614,-0.14595306
HGS,Hastings Rail Station,581450,109650,5,TQ8145009650,50.857894,0.5767418
HAT,Hatfield (Herts) Rail Station,523240,208750,4,TL2324008750,51.763878,-0.21558861
HSG,Hathersage Rail Station,423295,381040,2,SK2329581040,53.325772,-1.6517186
HTY,Hattersley Rail Station,397420,394280,1,SJ9742094280,53.445281,-2.0403105
HTN,Hatton (Warks) Rail Station,422400,266400,1,SP2240066400,52.295276,-1.6729752
HAV,Havant Rail Station,471781,106595,3,SU7178106595,50.854425,-0.98161147
HVN,Havenhouse Rail Station,552240,359890,1,TF5224059890,53.114467,0.27316741
HVF,Haverfordwest Rail Station,196000,215700,3,SM9600015700,51.80263,-4.9602031
HWD,Hawarden Rail Station,331130,365860,1,SJ3113065860,53.185357,-3.0320807
HWB,Hawarden Bridge Rail Station,331140,369500,1,SJ3114069500,53.218072,-3.0327174
HAY,Hayes & Harlington Rail Station,509714,179422,1,TQ0971479422,51.503094,-0.42068354
HYL,Hayle Rail Station,155970,37325,4,SW5597037325,50.185561,-5.4198361
HYM,Haymarket Rail Station,324000,673200,1,NT2400073200,55.945806,-3.2184494
HYS,Hayes (Kent) Rail Station,540030,166060,2,TQ4003066060,51.376332,0.01055671
HAZ,Hazel Grove Rail Station,391980,386750,3,SJ9198086750,53.377541,-2.1220194
HBD,Hebden Bridge Rail Station,399500,426800,1,SD9950026800,53.737586,-2.0090587
HBN,Hollingbourne Rail Station,583430,155060,1,TQ8343055060,51.265177,0.62784819
HIB,High Brooms Rail Station,559378,141370,1,TQ5937841370,51.149403,0.2773322
HBB,Hubberts Bridge Rail Station,526970,343670,2,TF2697043670,52.975351,-0.11052876
HBY,Hartlebury Rail Station,385030,270735,2,SO8503070735,52.334493,-2.2211189
HCH,Holmes Chapel Rail Station,376640,366930,1,SJ7664066930,53.198929,-2.3511398
HEC,Heckington Rail Station,514650,343580,1,TF1465043580,52.977316,-0.29394443
HMC,Hampton Court Rail Station,515376,168361,1,TQ1537668361,51.402554,-0.34274772
HNF,Hednesford Rail Station,399977,312494,2,SJ9997712494,52.71011,-2.0017779
HEN,Hendon Rail Station,522140,188270,1,TQ2214088270,51.580066,-0.23867414
HUD,Huddersfield Rail Station,414330,416910,2,SE1433016910,53.648501,-1.7846902
HCN,Headcorn Rail Station,583800,144000,1,TQ8380044000,51.165713,0.62748174
HLI,Healing Rail Station,521870,411040,1,TA2187011040,53.581797,-0.16062993
HHL,Heath High Level Rail Station,318111,180385,2,ST1811180385,51.516429,-3.1815414
HLL,Heath Low Level Rail Station,318080,180300,1,ST1808080300,51.51566,-3.1819683
HDE,Hedge End Rail Station,449674,115000,2,SU4967415000,50.932318,-1.2945034
HDY,Headingley Rail Station,426815,435820,2,SE2681535820,53.817972,-1.594188
HDL,Headstone Lane Rail Station,513870,190590,2,TQ1387090590,51.602647,-0.35721983
HLD,Hellifield Rail Station,385166,457229,2,SD8516657229,54.010861,-2.2278446
HMS,Helmsdale Rail Station,302380,915475,4,ND0238015475,58.117437,-3.6586875
HSB,Helsby Rail Station,348670,375635,2,SJ4867075635,53.2752,-2.7712066
HML,Hemel Hempstead Rail Station,504300,205925,3,TL0430005925,51.742331,-0.49077381
HNG,Hengoed Rail Station,315400,195000,1,ST1540095000,51.647407,-3.2241279
HNL,Henley-in-Arden Rail Station,414830,265950,2,SP1483065950,52.291486,-1.783991
HEL,Hensall Rail Station,458560,422820,1,SE5856022820,53.698543,-1.1145187
HFD,Hereford Rail Station,351543,240546,1,SO5154340546,52.061161,-2.7082102
HNH,Herne Hill Rail Station,531955,174410,2,TQ3195574410,51.453303,-0.10228917
HER,Hersham Rail Station,512155,165425,2,TQ1215565425,51.37681,-0.38995925
HFE,Hertford East Rail Station,532980,212910,1,TL3298012910,51.799033,-0.072941425
HES,Hessle Rail Station,502925,425685,4,TA0292525685,53.717436,-0.44182319
HSW,Heswall Rail Station,328590,381960,1,SJ2859081960,53.329715,-3.0737027
HEV,Hever Rail Station,546530,144550,1,TQ4653044550,51.181409,0.095069327
HEW,Heworth Rail Station,428550,561970,3,NZ2855061970,54.951567,-1.5557661
HEX,Hexham Rail Station,394030,564320,2,NY9403064320,54.973458,-2.0947946
HYD,Heyford Rail Station,448290,224750,1,SP4829024750,51.919189,-1.29927
HHB,Heysham Port Rail Station,340290,460070,1,SD4029060070,54.033142,-2.9131143
HFN,Hertford North Rail Station,531681,212856,1,TL3168112856,51.798855,-0.091788546
HAP,Hatfield Peverel Rail Station,578910,212200,1,TL7891012200,51.779863,0.59212371
HIG,Highbridge & Burnham-on-Sea Rail Station,332200,147000,3,ST3220047000,51.218155,-2.9721534
HHY,Highbury & Islington Rail Station,531585,184735,3,TQ3158584735,51.546175,-0.10376372
HIP,Highams Park Rail Station,538575,191840,2,TQ3857591840,51.608349,-0.000222267
HEI,Heighington Rail Station,427120,522500,2,NZ2712022500,54.596959,-1.5817651
HII,Highbury & Islington Rail Station,531585,184725,2,TQ3158584725,51.546086,-0.10376745
HGM,Higham Rail Station,571556,172613,1,TQ7155672613,51.426557,0.46627771
HIL,Hillside Rail Station,332320,414440,1,SD3232014440,53.622105,-3.0247163
HLS,Hilsea Rail Station,466385,103615,4,SU6638503615,50.828275,-1.0587974
HNK,Hinckley Rail Station,442700,293200,1,SP4270093200,52.534997,-1.3719232
HIN,Hindley Rail Station,361960,405220,1,SD6196005220,53.542235,-2.5755016
HNA,Hinton Admiral Rail Station,420263,94821,1,SZ2026394821,50.752638,-1.7141265
HIT,Hitchin Rail Station,519433,229734,4,TL1943329734,51.953281,-0.26348084
HTO,Hightown Rail Station,330020,403680,1,SD3002003680,53.525104,-3.0570679
HID,Hall i' th' Wood Rail Station,372757,411285,2,SD7275711285,53.597421,-2.4131097
HCB,Hackbridge Rail Station,528580,165930,1,TQ2858065930,51.37787,-0.15390755
HDG,Heald Green Rail Station,384350,385865,2,SJ8435085865,53.369414,-2.2366673
HLB,Hildenborough Rail Station,555680,148500,1,TQ5568048500,51.214484,0.2275899
HLF,Hillfoot Rail Station,255100,672100,1,NS5510072100,55.920091,-4.3202741
HFX,Halifax Rail Station,409760,424960,2,SE0976024960,53.720959,-1.8535747
HLG,Hall Green Rail Station,410590,282115,2,SP1059082115,52.436908,-1.8456509
HLM,Holmwood Rail Station,517465,143780,2,TQ1746543780,51.181194,-0.32080898
HLE,Hillington East Rail Station,252680,664840,2,NS5268064840,55.854181,-4.3550102
HLW,Hillington West Rail Station,251650,665080,1,NS5165065080,55.85602,-4.3715799
HLC,Helensburgh Central Rail Station,229700,682400,1,NS2970082400,56.004207,-4.7327577
HLU,Helensburgh Upper Rail Station,229920,683300,1,NS2992083300,56.012362,-4.7298039
HWH,Haltwhistle Rail Station,370420,563790,1,NY7042063790,54.967848,-2.463565
HHD,Holyhead Rail Station,224800,382200,1,SH2480082200,53.307682,-4.6310023
HME,Hamble Rail Station,447300,108200,1,SU4730008200,50.871373,-1.3291621
HMD,Hampden Park (Sussex) Rail Station,560733,102125,1,TQ6073302125,50.796404,0.27935579
HUP,Humphrey Park Rail Station,378346,395102,1,SJ7834695102,53.452227,-2.3275377
HDH,Hampstead Heath Rail Station,527265,185630,2,TQ2726585630,51.555209,-0.16570542
HIA,Hampton-in-Arden Rail Station,420500,281270,1,SP2050081270,52.429031,-1.6999306
HMT,Ham Street Rail Station,600090,133770,1,TR0009033770,51.068377,0.85450633
HAM,Hamworthy Rail Station,398730,91730,1,SY9873091730,50.72519,-2.019357
HYW,Hinchley Wood Rail Station,515600,165300,1,TQ1560065300,51.374997,-0.34052453
HTH,Handforth Rail Station,385875,383310,2,SJ8587583310,53.346492,-2.2136333
THW,The Hawthorns Rail Station,402540,289720,1,SP0254089720,52.505371,-1.9640089
HRR,Harrington Rail Station,298995,525385,2,NX9899525385,54.613483,-3.5655146
HOT,Henley-on-Thames Rail Station,476380,182270,1,SU7638082270,51.534178,-0.9002122
HNT,Huntly Rail Station,353537,839618,2,NJ5353739618,57.444487,-2.77574
HUN,Huntingdon Rail Station,523300,271600,3,TL2330071600,52.328647,-0.19206805
HOC,Hockley Rail Station,584237,192762,1,TQ8423792762,51.603555,0.65900109
HOL,Holton Heath Rail Station,394600,90200,1,SY9460090200,50.711407,-2.0778448
HLY,Holytown Rail Station,276400,659500,1,NS7640059500,55.812897,-3.9739288
HMN,Homerton Rail Station,535840,184940,2,TQ3584084940,51.54701,-0.042359833
HON,Honiton Rail Station,316460,100340,1,ST1646000340,50.796579,-3.1867178
HOY,Honley Rail Station,414590,412430,1,SE1459012430,53.608227,-1.7809653
HPA,Honor Oak Park Rail Station,535910,174145,2,TQ3591074145,51.449987,-0.045505451
HYB,Honeybourne Rail Station,411485,244820,2,SP1148544820,52.101599,-1.8337427
HOK,Hook Rail Station,472520,153940,1,SU7252053940,51.279997,-0.96163575
HOO,Hooton Rail Station,334980,378250,1,SJ3498078250,53.297197,-2.9770093
HPE,Hope (Flintshire) Rail Station,330700,358300,1,SJ3070058300,53.117356,-3.0368758
HOP,Hope (Derbyshire) Rail Station,418080,383280,2,SK1808083280,53.346109,-1.7298867
HPT,Hopton Heath Rail Station,338030,277435,2,SO3803077435,52.391414,-2.9120596
HOR,Horley Rail Station,528665,142666,1,TQ2866542666,51.168774,-0.16105358
HRH,Horsham Rail Station,517865,130980,3,TQ1786530980,51.066063,-0.31926949
HWI,Horwich Parkway Rail Station,364365,409192,2,SD6436509192,53.578104,-2.5396659
HSC,Hoscar Rail Station,346860,411545,2,SD4686011545,53.597767,-2.8044209
HGN,Hough Green Rail Station,348530,386450,1,SJ4853086450,53.37239,-2.7750659
HOU,Hounslow Rail Station,513870,174935,2,TQ1387074935,51.461944,-0.36227694
HOV,Hove Rail Station,528912,105559,3,TQ2891205559,50.835215,-0.17068739
HOW,Howden Rail Station,475215,430420,2,SE7521530420,53.76471,-0.86046305
HOZ,Howwood (Renfrewshire) Rail Station,239480,660450,1,NS3948060450,55.810563,-4.5630579
HWW,How Wood (Herts) Rail Station,514449,203409,1,TL1444903409,51.71774,-0.34467044
HOX,Hoxton Rail Station,533575,183155,1,TQ3357583155,51.53151,-0.075681573
HYK,Hoylake Rail Station,321700,388800,1,SJ2170088800,53.390209,-3.1788307
HGY,Harringay Rail Station,531400,188200,1,TQ3140088200,51.577357,-0.10513614
HRY,Harringay Green Lanes Rail Station,531885,188193,2,TQ3188588193,51.577181,-0.098143774
HRL,Harlech Rail Station,258100,331400,1,SH5810031400,52.861327,-4.1091904
HRO,Harold Wood Rail Station,554785,190575,2,TQ5478590575,51.592764,0.2331286
HLN,Harlington (Beds) Rail Station,503456,230355,2,TL0345630355,51.96206,-0.49568992
HRD,Harling Road Rail Station,597770,287950,1,TL9777087950,52.453688,0.90914228
HWM,Harlow Mill Rail Station,547160,212340,1,TL4716012340,51.790364,0.13230755
HWN,Harlow Town Rail Station,544626,211232,3,TL4462611232,51.781069,0.095131797
HBP,Hornbeam Park Rail Station,431130,453860,1,SE3113053860,53.979867,-1.5268223
HNB,Herne Bay Rail Station,617130,167450,3,TR1713067450,51.364591,1.1177258
HRN,Hornsey Rail Station,530900,189200,1,TQ3090089200,51.586459,-0.11197506
HRW,Harrow & Wealdstone Rail Station,515465,189460,2,TQ1546589460,51.592167,-0.33457147
HRW,Harrow & Wealdstone Rail Station,515465,189461,3,TQ1546589461,51.592176,-0.33457114
HPD,Harpenden Rail Station,513735,214175,2,TL1373514175,51.814643,-0.35148052
HSY,Horsley Rail Station,509223,154518,1,TQ0922354518,51.279345,-0.43540866
HRM,Harrietsham Rail Station,586620,152910,1,TQ8662052910,51.244831,0.67239934
HUR,Hurst Green Rail Station,539970,151380,1,TQ3997051380,51.244429,0.003939328
HPL,Hartlepool Rail Station,451200,532700,1,NZ5120032700,54.686754,-1.2073162
HTW,Hartwood Rail Station,284830,659110,1,NS8483059110,55.811479,-3.8393218
HRS,Horsforth Rail Station,424425,439115,2,SE2442539115,53.847704,-1.6302284
HTE,Hatch End Rail Station,513065,191325,2,TQ1306591325,51.609415,-0.36860143
HTC,Heaton Chapel Rail Station,388200,392100,1,SJ8820092100,53.425558,-2.1790415
HFS,Hatfield & Stainforth Rail Station,464745,410680,2,SE6474510680,53.588714,-1.0233773
HGR,Hither Green Rail Station,539000,174455,2,TQ3900074455,51.452024,-0.000944249
HUT,Hutton Cranswick Rail Station,502865,452220,2,TA0286552220,53.955853,-0.43386158
HIR,Horton-in-Ribblesdale Rail Station,380370,472660,1,SD8037072660,54.149384,-2.3020327
HWX,Heathrow Airport Terminal 5,505020,175780,1,TQ0502075780,51.471249,-0.48936883
LHR,Heathrow Terminals 1-3 Rail Station,507453,175848,4,TQ0745375848,51.471404,-0.45433268
HTR,Heathrow Airport Central Bus Stn (Rail-Air),507525,175815,1,TQ0752575815,51.471094,-0.4533065
HWF,Heathrow Terminal 4 (Rail-Air),507993,174516,3,TQ0799374516,51.459329,-0.44696756
HAF,Heathrow Terminal 4 Rail Station,508100,174400,3,TQ0810074400,51.458266,-0.44546346
HWV,Heathrow Terminal 5 Rail Station,504938,175645,1,TQ0493875645,51.470051,-0.49058903
HKN,Hucknall Rail Station,454020,349303,1,SK5402049303,53.038282,-1.1958115
HUL,Hull Rail Station,509200,428800,1,TA0920028800,53.744149,-0.34568002
HCT,Huncoat Rail Station,377190,430660,2,SD7719030660,53.771776,-2.3475613
HGD,Hungerford Rail Station,434014,168545,1,SU3401468545,51.414909,-1.512287
HUB,Hunmanby Rail Station,510115,476660,2,TA1011576660,54.173924,-0.31455681
HNX,Hunts Cross Rail Station,343139,385212,2,SJ4313985212,53.360709,-2.8558609
HUY,Huyton Rail Station,344060,390650,1,SJ4406090650,53.409682,-2.8429888
HKH,Hawkhead Rail Station,249890,663600,1,NS4989063600,55.842189,-4.3988508
HWY,High Wycombe Rail Station,486935,193053,3,SU8693593053,51.629584,-0.74540986
HDB,Haydon Bridge Rail Station,384250,564535,2,NY8425064535,54.975174,-2.2475877
HYC,Hyde Central Rail Station,394436,395017,2,SJ9443695017,53.451882,-2.0852501
HYT,Hyde North Rail Station,394424,396454,2,SJ9442496454,53.464798,-2.0854568
HYR,Haydons Road Rail Station,526020,171160,1,TQ2602071160,51.425446,-0.18881471
HKM,Hykeham Rail Station,493615,367350,2,SK9361567350,53.195003,-0.60019646
HYN,Hyndland Rail Station,255300,667600,1,NS5530067600,55.879753,-4.3146683
HHE,Haywards Heath Rail Station,533045,124630,2,TQ3304524630,51.00568,-0.10507778
IBM,IBM (Greenock) Rail Station,223470,674320,1,NS2347074320,55.929446,-4.8272399
IFI,Ifield Rail Station,525053,136663,1,TQ2505336663,51.115621,-0.21477215
IFD,Ilford Rail Station,543570,186500,2,TQ4357086500,51.559116,0.06967945
ILN,Ilkeston Rail Station,447438,342704,1,SK4743842704,52.97959,-1.2949318
ILK,Ilkley Rail Station,411785,447640,2,SE1178547640,53.924763,-1.8220275
INC,Ince (Manchester) Rail Station,359570,404870,2,SD5957004870,53.53891,-2.6115196
INE,Ince & Elton Rail Station,345650,375825,2,SJ4565075825,53.276606,-2.8165223
INT,Ingatestone Rail Station,564982,199165,1,TQ6498299165,51.667041,0.38424673
INS,Insch Rail Station,362950,827610,1,NJ6295027610,57.337497,-2.6171122
INP,Inverkip Rail Station,220530,671840,1,NS2053071840,55.906103,-4.872586
ING,Invergowrie Rail Station,334930,729870,1,NO3493029870,56.456472,-3.0573977
INH,Invershin Rail Station,257985,895356,2,NH5798595356,57.924868,-4.3994778
INR,Inverurie Rail Station,377580,821800,1,NJ7758021800,57.286266,-2.3735595
IPS,Ipswich Rail Station,615700,243800,1,TM1570043800,52.050591,1.1444256
IRL,Irlam Rail Station,371315,393146,2,SJ7131593146,53.434308,-2.4332301
IRV,Irvine Rail Station,231600,638500,1,NS3160038500,55.610873,-4.6751453
ISL,Isleworth Rail Station,515600,176400,1,TQ1560076400,51.474761,-0.33690679
ISP,Islip Rail Station,452600,214400,1,SP5260014400,51.825752,-1.2381817
IVR,Iver Rail Station,503730,179898,2,TQ0373079898,51.508501,-0.50672601
IGD,Invergordon Rail Station,270443,868656,4,NH7044368656,57.689017,-4.1748403
INK,Inverkeithing Rail Station,313100,683300,1,NT1310083300,56.034676,-3.3961868
INV,Inverness Rail Station,266788,845473,2,NH6678845473,57.479868,-4.2233609
IVY,Ivybridge Rail Station,264745,56570,4,SX6474556570,50.39341,-3.9042041
JCH,James Cook University Hospital Rail Station,451288,517708,0,NZ5128817708,54.552029,-1.2085694
LVJ,Liverpool James Street Rail Station,334150,390230,1,SJ3415090230,53.404762,-2.9919576
JOH,Johnston (Pembrokeshire) Rail Station,193300,210700,4,SM9330010700,51.756745,-4.9963282
JHN,Johnstone Rail Station,243300,663000,1,NS4330063000,55.834707,-4.5036372
JOR,Jordanhill Rail Station,254670,667950,2,NS5467067950,55.882705,-4.3249178
